[
 {
   "dispatch_date_time": "2021/5/8 8:12",
   "location_block": "W SUSQUEHANNA AV  & N CAMAC ST ",
   "ucr_general": 600,
   "text_general_code": "Theft from Vehicle",
   "lat": 39.98590872,
   "lng": -75.15327817
 },
 {
   "dispatch_date_time": "2021/5/8 2:01",
   "location_block": "OLD YORK RD  & WINDRIM AV ",
   "ucr_general": 600,
   "text_general_code": "Theft from Vehicle",
   "lat": 40.02993751,
   "lng": -75.14600354
 },
 {
   "dispatch_date_time": "2021/5/8 1:25",
   "location_block": "4800 BLOCK STENTON AV",
   "ucr_general": 600,
   "text_general_code": "Theft from Vehicle",
   "lat": 40.02773965,
   "lng": -75.15854496
 },
 {
   "dispatch_date_time": "2021/5/7 23:30",
   "location_block": "3300 BLOCK N 22ND ST",
   "ucr_general": 900,
   "text_general_code": "Arson",
   "lat": 40.00579714,
   "lng": -75.16565661
 },
 {
   "dispatch_date_time": "2021/5/7 19:36",
   "location_block": "700 BLOCK N 18TH ST",
   "ucr_general": 600,
   "text_general_code": "Theft from Vehicle",
   "lat": 39.96724356,
   "lng": -75.16696761
 },
 {
   "dispatch_date_time": "2021/5/7 18:47",
   "location_block": "500 BLOCK CECIL B MOORE AV",
   "ucr_general": 600,
   "text_general_code": "Theft from Vehicle",
   "lat": 39.97687838,
   "lng": -75.14382689
 },
 {
   "dispatch_date_time": "2021/5/7 17:22",
   "location_block": "1400 BLOCK MASTER ST",
   "ucr_general": 600,
   "text_general_code": "Theft from Vehicle",
   "lat": 39.9745357,
   "lng": -75.15927684
 },
 {
   "dispatch_date_time": "2021/5/7 17:18",
   "location_block": "2100 BLOCK STRAHLE ST",
   "ucr_general": 600,
   "text_general_code": "Theft from Vehicle",
   "lat": 40.06611998,
   "lng": -75.04845384
 },
 {
   "dispatch_date_time": "2021/5/7 17:09",
   "location_block": "900 BLOCK WYNNEWOOD RD",
   "ucr_general": 600,
   "text_general_code": "Theft from Vehicle",
   "lat": 39.97979783,
   "lng": -75.24736712
 },
 {
   "dispatch_date_time": "2021/5/7 16:49",
   "location_block": "1800 BLOCK E TIOGA ST",
   "ucr_general": 600,
   "text_general_code": "Theft from Vehicle",
   "lat": 39.99918331,
   "lng": -75.10515441
 },
 {
   "dispatch_date_time": "2021/5/7 16:20",
   "location_block": "4100 BLOCK OLD YORK RD 1B",
   "ucr_general": 600,
   "text_general_code": "Theft from Vehicle",
   "lat": 40.01528461,
   "lng": -75.14754886
 },
 {
   "dispatch_date_time": "2021/5/7 16:07",
   "location_block": "1000 BLOCK UNRUH AV",
   "ucr_general": 600,
   "text_general_code": "Theft from Vehicle",
   "lat": 40.04794377,
   "lng": -75.08295092
 },
 {
   "dispatch_date_time": "2021/5/7 15:05",
   "location_block": "4200 BLOCK PINE ST",
   "ucr_general": 600,
   "text_general_code": "Theft from Vehicle",
   "lat": 39.95085525,
   "lng": -75.20768823
 },
 {
   "dispatch_date_time": "2021/5/7 14:16",
   "location_block": "1800 BLOCK E CLIVEDEN ST",
   "ucr_general": 600,
   "text_general_code": "Theft from Vehicle",
   "lat": 40.06658602,
   "lng": -75.16359258
 },
 {
   "dispatch_date_time": "2021/5/7 14:14",
   "location_block": "800 BLOCK N 16th St",
   "ucr_general": 600,
   "text_general_code": "Theft from Vehicle",
   "lat": 39.97015759,
   "lng": -75.16287755
 },
 {
   "dispatch_date_time": "2021/5/7 13:37",
   "location_block": "5000 BLOCK CHESTNUT ST",
   "ucr_general": 600,
   "text_general_code": "Theft from Vehicle",
   "lat": 39.9583424,
   "lng": -75.22187133
 },
 {
   "dispatch_date_time": "2021/5/7 13:19",
   "location_block": "3100 BLOCK NESPER ST",
   "ucr_general": 600,
   "text_general_code": "Theft from Vehicle",
   "lat": 40.04364439,
   "lng": -75.04669592
 },
 {
   "dispatch_date_time": "2021/5/7 12:47",
   "location_block": "N 7TH ST  & W SOMERSET ST ",
   "ucr_general": 600,
   "text_general_code": "Theft from Vehicle",
   "lat": 39.99414773,
   "lng": -75.14347889
 },
 {
   "dispatch_date_time": "2021/5/7 12:22",
   "location_block": "2100 BLOCK SAINT VINCENT ST",
   "ucr_general": 600,
   "text_general_code": "Theft from Vehicle",
   "lat": 40.04505997,
   "lng": -75.0602665
 },
 {
   "dispatch_date_time": "2021/5/7 12:07",
   "location_block": "6600 BLOCK OGONTZ AV",
   "ucr_general": 600,
   "text_general_code": "Theft from Vehicle",
   "lat": 40.05483322,
   "lng": -75.14934971
 },
 {
   "dispatch_date_time": "2021/5/7 11:58",
   "location_block": "4800 BLOCK Conshohocken Ave",
   "ucr_general": 600,
   "text_general_code": "Theft from Vehicle",
   "lat": 40.00011997,
   "lng": -75.2246806
 },
 {
   "dispatch_date_time": "2021/5/7 11:53",
   "location_block": "6200 BLOCK GLENMORE AV",
   "ucr_general": 600,
   "text_general_code": "Theft from Vehicle",
   "lat": 39.92619161,
   "lng": -75.22888462
 },
 {
   "dispatch_date_time": "2021/5/7 11:52",
   "location_block": "6700 BLOCK Regent St",
   "ucr_general": 600,
   "text_general_code": "Theft from Vehicle",
   "lat": 39.92653449,
   "lng": -75.24021132
 },
 {
   "dispatch_date_time": "2021/5/7 11:50",
   "location_block": "3300 BLOCK MIDVALE AV",
   "ucr_general": 600,
   "text_general_code": "Theft from Vehicle",
   "lat": 40.01622607,
   "lng": -75.1892862
 },
 {
   "dispatch_date_time": "2021/5/7 11:46",
   "location_block": "1600 BLOCK PORTER ST 2",
   "ucr_general": 600,
   "text_general_code": "Theft from Vehicle",
   "lat": 39.92006058,
   "lng": -75.17465855
 },
 {
   "dispatch_date_time": "2021/5/7 11:15",
   "location_block": "2100 BLOCK OAKFORD ST",
   "ucr_general": 600,
   "text_general_code": "Theft from Vehicle",
   "lat": 39.93702989,
   "lng": -75.17978607
 },
 {
   "dispatch_date_time": "2021/5/7 11:15",
   "location_block": "3000 BLOCK VISTA ST",
   "ucr_general": 600,
   "text_general_code": "Theft from Vehicle",
   "lat": 40.04514034,
   "lng": -75.04764485
 },
 {
   "dispatch_date_time": "2021/5/7 11:00",
   "location_block": "400 BLOCK N FRONT ST",
   "ucr_general": 600,
   "text_general_code": "Theft from Vehicle",
   "lat": 39.95709215,
   "lng": -75.14014828
 },
 {
   "dispatch_date_time": "2021/5/7 10:41",
   "location_block": "7400 BLOCK BRIAR RD",
   "ucr_general": 600,
   "text_general_code": "Theft from Vehicle",
   "lat": 40.06741424,
   "lng": -75.15460778
 },
 {
   "dispatch_date_time": "2021/5/7 10:27",
   "location_block": "600 BLOCK N 21ST ST",
   "ucr_general": 600,
   "text_general_code": "Theft from Vehicle",
   "lat": 39.96543434,
   "lng": -75.17253944
 },
 {
   "dispatch_date_time": "2021/5/7 10:11",
   "location_block": "400 BLOCK N 4TH ST",
   "ucr_general": 600,
   "text_general_code": "Theft from Vehicle",
   "lat": 39.95916683,
   "lng": -75.14542573
 },
 {
   "dispatch_date_time": "2021/5/7 10:09",
   "location_block": "200 BLOCK E GIRARD AV",
   "ucr_general": 600,
   "text_general_code": "Theft from Vehicle",
   "lat": 39.96972311,
   "lng": -75.13177227
 },
 {
   "dispatch_date_time": "2021/5/7 10:01",
   "location_block": "6200 BLOCK MAGNOLIA ST",
   "ucr_general": 600,
   "text_general_code": "Theft from Vehicle",
   "lat": 40.04724947,
   "lng": -75.17677156
 },
 {
   "dispatch_date_time": "2021/5/7 9:58",
   "location_block": "500 BLOCK E WASHINGTON LA",
   "ucr_general": 600,
   "text_general_code": "Theft from Vehicle",
   "lat": 40.05008764,
   "lng": -75.17343567
 },
 {
   "dispatch_date_time": "2021/5/7 9:14",
   "location_block": "1900 BLOCK N RINGGOLD ST",
   "ucr_general": 600,
   "text_general_code": "Theft from Vehicle",
   "lat": 39.98403965,
   "lng": -75.17380403
 },
 {
   "dispatch_date_time": "2021/5/7 8:57",
   "location_block": "5800 BLOCK W THOMPSON ST",
   "ucr_general": 600,
   "text_general_code": "Theft from Vehicle",
   "lat": 39.97195286,
   "lng": -75.23707686
 },
 {
   "dispatch_date_time": "2021/5/7 8:49",
   "location_block": "600 BLOCK FLAMINGO ST",
   "ucr_general": 600,
   "text_general_code": "Theft from Vehicle",
   "lat": 40.05271587,
   "lng": -75.23182763
 },
 {
   "dispatch_date_time": "2021/5/7 8:44",
   "location_block": "4500 BLOCK ISLAND AV",
   "ucr_general": 600,
   "text_general_code": "Theft from Vehicle",
   "lat": 39.88417213,
   "lng": -75.23078211
 },
 {
   "dispatch_date_time": "2021/5/7 8:26",
   "location_block": "3000 BLOCK W OXFORD ST",
   "ucr_general": 600,
   "text_general_code": "Theft from Vehicle",
   "lat": 39.98053862,
   "lng": -75.18502859
 },
 {
   "dispatch_date_time": "2021/5/7 7:39",
   "location_block": "600 BLOCK S Felton",
   "ucr_general": 600,
   "text_general_code": "Theft from Vehicle",
   "lat": 28.41954831,
   "lng": -81.58120216
 },
 {
   "dispatch_date_time": "2021/5/7 7:38",
   "location_block": "7800 BLOCK BROUS AV",
   "ucr_general": 600,
   "text_general_code": "Theft from Vehicle",
   "lat": 40.05113371,
   "lng": -75.04551003
 },
 {
   "dispatch_date_time": "2021/5/7 0:24",
   "location_block": "2600 BLOCK S CHRISTOPHER COLUMBUS BLVD",
   "ucr_general": 600,
   "text_general_code": "Theft from Vehicle",
   "lat": 39.920226,
   "lng": -75.14168351
 },
 {
   "dispatch_date_time": "2021/5/6 21:24",
   "location_block": "1900 BLOCK DENNIE ST",
   "ucr_general": 600,
   "text_general_code": "Theft from Vehicle",
   "lat": 40.02044406,
   "lng": -75.15696643
 },
 {
   "dispatch_date_time": "2021/5/6 20:57",
   "location_block": "200 BLOCK SPRING GARDEN ST",
   "ucr_general": 600,
   "text_general_code": "Theft from Vehicle",
   "lat": 39.96093579,
   "lng": -75.14196426
 },
 {
   "dispatch_date_time": "2021/5/6 19:22",
   "location_block": "100 BLOCK RIDGEFIELD RD",
   "ucr_general": 600,
   "text_general_code": "Theft from Vehicle",
   "lat": 40.07411886,
   "lng": -74.97591299
 },
 {
   "dispatch_date_time": "2021/5/6 18:19",
   "location_block": "4800 BLOCK LARCHWOOD AV",
   "ucr_general": 600,
   "text_general_code": "Theft from Vehicle",
   "lat": 39.95120693,
   "lng": -75.21959531
 },
 {
   "dispatch_date_time": "2021/5/6 18:12",
   "location_block": "6700 BLOCK ESSINGTON AV",
   "ucr_general": 600,
   "text_general_code": "Theft from Vehicle",
   "lat": 39.90859017,
   "lng": -75.22427133
 },
 {
   "dispatch_date_time": "2021/5/6 18:10",
   "location_block": "4000 BLOCK PARKSIDE AV",
   "ucr_general": 600,
   "text_general_code": "Theft from Vehicle",
   "lat": 39.97506918,
   "lng": -75.20635153
 },
 {
   "dispatch_date_time": "2021/5/6 17:48",
   "location_block": "6700 BLOCK PASCHALL AV",
   "ucr_general": 600,
   "text_general_code": "Theft from Vehicle",
   "lat": 39.92256573,
   "lng": -75.23565195
 },
 {
   "dispatch_date_time": "2021/5/6 17:13",
   "location_block": "700 BLOCK N 22ND ST",
   "ucr_general": 600,
   "text_general_code": "Theft from Vehicle",
   "lat": 39.96733093,
   "lng": -75.17400361
 },
 {
   "dispatch_date_time": "2021/5/6 16:59",
   "location_block": "5600 BLOCK BALTIMORE AV",
   "ucr_general": 600,
   "text_general_code": "Theft from Vehicle",
   "lat": 39.94681193,
   "lng": -75.23718373
 },
 {
   "dispatch_date_time": "2021/5/6 15:43",
   "location_block": "0 BLOCK OREGON AV",
   "ucr_general": 600,
   "text_general_code": "Theft from Vehicle",
   "lat": 39.91263517,
   "lng": -75.1433826
 },
 {
   "dispatch_date_time": "2021/5/6 14:12",
   "location_block": "6000 BLOCK OAKLAND ST",
   "ucr_general": 600,
   "text_general_code": "Theft from Vehicle",
   "lat": 40.03212884,
   "lng": -75.07680278
 },
 {
   "dispatch_date_time": "2021/5/6 13:02",
   "location_block": "1000 BLOCK MARLBOROUGH ST",
   "ucr_general": 600,
   "text_general_code": "Theft from Vehicle",
   "lat": 39.96806567,
   "lng": -75.13088295
 },
 {
   "dispatch_date_time": "2021/5/6 12:11",
   "location_block": "4300 BLOCK PALMETTO ST",
   "ucr_general": 600,
   "text_general_code": "Theft from Vehicle",
   "lat": 40.01386936,
   "lng": -75.10666768
 },
 {
   "dispatch_date_time": "2021/5/6 12:01",
   "location_block": "3000 BLOCK Poplar St",
   "ucr_general": 600,
   "text_general_code": "Theft from Vehicle",
   "lat": 39.97328759,
   "lng": -75.18554708
 },
 {
   "dispatch_date_time": "2021/5/6 11:28",
   "location_block": "1900 BLOCK N 7TH ST 1F",
   "ucr_general": 600,
   "text_general_code": "Theft from Vehicle",
   "lat": 39.98084111,
   "lng": -75.14594049
 },
 {
   "dispatch_date_time": "2021/5/6 10:08",
   "location_block": "2800 BLOCK DISSTON ST",
   "ucr_general": 600,
   "text_general_code": "Theft from Vehicle",
   "lat": 40.03923915,
   "lng": -75.05788108
 },
 {
   "dispatch_date_time": "2021/5/6 10:01",
   "location_block": "6300 BLOCK Wheeler St",
   "ucr_general": 600,
   "text_general_code": "Theft from Vehicle",
   "lat": 39.92389327,
   "lng": -75.22969792
 },
 {
   "dispatch_date_time": "2021/5/6 9:13",
   "location_block": "500 BLOCK N 53rd St",
   "ucr_general": 600,
   "text_general_code": "Theft from Vehicle",
   "lat": 39.96804761,
   "lng": -75.22666872
 },
 {
   "dispatch_date_time": "2021/5/6 8:30",
   "location_block": "600 BLOCK N FRONT ST",
   "ucr_general": 600,
   "text_general_code": "Theft from Vehicle",
   "lat": 39.96048532,
   "lng": -75.13887032
 },
 {
   "dispatch_date_time": "2021/5/6 8:11",
   "location_block": "1400 BLOCK N Sydenham St",
   "ucr_general": 600,
   "text_general_code": "Theft from Vehicle",
   "lat": 39.97484738,
   "lng": -75.1612595
 },
 {
   "dispatch_date_time": "2021/5/6 8:06",
   "location_block": "2100 BLOCK LONEY ST",
   "ucr_general": 600,
   "text_general_code": "Theft from Vehicle",
   "lat": 40.05882907,
   "lng": -75.0536664
 },
 {
   "dispatch_date_time": "2021/5/6 7:29",
   "location_block": "5700 BLOCK KEMBLE AV",
   "ucr_general": 600,
   "text_general_code": "Theft from Vehicle",
   "lat": 40.04125038,
   "lng": -75.15162145
 },
 {
   "dispatch_date_time": "2021/5/5 22:53",
   "location_block": "400 BLOCK E GODFREY AV",
   "ucr_general": 900,
   "text_general_code": "Arson",
   "lat": 40.04199817,
   "lng": -75.10727545
 },
 {
   "dispatch_date_time": "2021/5/5 20:35",
   "location_block": "300 BLOCK WASHINGTON AV",
   "ucr_general": 600,
   "text_general_code": "Theft from Vehicle",
   "lat": 39.93359258,
   "lng": -75.15017104
 },
 {
   "dispatch_date_time": "2021/5/5 18:24",
   "location_block": "6000 BLOCK N 17TH ST",
   "ucr_general": 600,
   "text_general_code": "Theft from Vehicle",
   "lat": 40.04541106,
   "lng": -75.14790885
 },
 {
   "dispatch_date_time": "2021/5/5 17:52",
   "location_block": "4700 BLOCK RHAWN ST",
   "ucr_general": 600,
   "text_general_code": "Theft from Vehicle",
   "lat": 40.03358266,
   "lng": -75.02324149
 },
 {
   "dispatch_date_time": "2021/5/5 17:24",
   "location_block": "1500 BLOCK W DAUPHIN ST",
   "ucr_general": 600,
   "text_general_code": "Theft from Vehicle",
   "lat": 39.98808986,
   "lng": -75.15756296
 },
 {
   "dispatch_date_time": "2021/5/5 17:00",
   "location_block": "1300 BLOCK GLENVIEW ST",
   "ucr_general": 600,
   "text_general_code": "Theft from Vehicle",
   "lat": 40.0466783,
   "lng": -75.07552154
 },
 {
   "dispatch_date_time": "2021/5/5 16:55",
   "location_block": "6000 BLOCK CHESTNUT ST",
   "ucr_general": 600,
   "text_general_code": "Theft from Vehicle",
   "lat": 39.96082883,
   "lng": -75.24209439
 },
 {
   "dispatch_date_time": "2021/5/5 16:31",
   "location_block": "5300 BLOCK LINDBERGH BLVD",
   "ucr_general": 600,
   "text_general_code": "Theft from Vehicle",
   "lat": 39.93383981,
   "lng": -75.21445008
 },
 {
   "dispatch_date_time": "2021/5/5 16:27",
   "location_block": "3300 BLOCK Frankford Ave",
   "ucr_general": 600,
   "text_general_code": "Theft from Vehicle",
   "lat": 39.99473563,
   "lng": -75.10778277
 },
 {
   "dispatch_date_time": "2021/5/5 16:22",
   "location_block": "9200 BLOCK WISSINOMING ST",
   "ucr_general": 600,
   "text_general_code": "Theft from Vehicle",
   "lat": 40.04582266,
   "lng": -74.99216814
 },
 {
   "dispatch_date_time": "2021/5/5 16:17",
   "location_block": "800 BLOCK Porter St",
   "ucr_general": 600,
   "text_general_code": "Theft from Vehicle",
   "lat": 39.91835144,
   "lng": -75.16140235
 },
 {
   "dispatch_date_time": "2021/5/5 15:56",
   "location_block": "800 BLOCK SOUTH ST",
   "ucr_general": 600,
   "text_general_code": "Theft from Vehicle",
   "lat": 39.94243735,
   "lng": -75.15554821
 },
 {
   "dispatch_date_time": "2021/5/5 15:30",
   "location_block": "1200 BLOCK FILLMORE ST",
   "ucr_general": 600,
   "text_general_code": "Theft from Vehicle",
   "lat": 40.02138457,
   "lng": -75.08794001
 },
 {
   "dispatch_date_time": "2021/5/5 15:24",
   "location_block": "700 BLOCK N 48TH ST",
   "ucr_general": 600,
   "text_general_code": "Theft from Vehicle",
   "lat": 39.96552468,
   "lng": -75.21663977
 },
 {
   "dispatch_date_time": "2021/5/5 15:06",
   "location_block": "1600 BLOCK ROUMFORT RD",
   "ucr_general": 600,
   "text_general_code": "Theft from Vehicle",
   "lat": 40.08324502,
   "lng": -75.17550771
 },
 {
   "dispatch_date_time": "2021/5/5 15:00",
   "location_block": "2100 BLOCK E CUMBERLAND ST",
   "ucr_general": 600,
   "text_general_code": "Theft from Vehicle",
   "lat": 39.98372225,
   "lng": -75.12599659
 },
 {
   "dispatch_date_time": "2021/5/5 14:20",
   "location_block": "4200 BLOCK MILL ST",
   "ucr_general": 600,
   "text_general_code": "Theft from Vehicle",
   "lat": 40.04073591,
   "lng": -75.02422056
 },
 {
   "dispatch_date_time": "2021/5/5 14:16",
   "location_block": "400 BLOCK SHUNK ST",
   "ucr_general": 600,
   "text_general_code": "Theft from Vehicle",
   "lat": 39.9156478,
   "lng": -75.15515052
 },
 {
   "dispatch_date_time": "2021/5/5 14:06",
   "location_block": "6400 BLOCK SHERWOOD RD",
   "ucr_general": 600,
   "text_general_code": "Theft from Vehicle",
   "lat": 39.98484319,
   "lng": -75.25401438
 },
 {
   "dispatch_date_time": "2021/5/5 13:54",
   "location_block": "4300 BLOCK GLENDALE ST",
   "ucr_general": 600,
   "text_general_code": "Theft from Vehicle",
   "lat": 40.01326021,
   "lng": -75.09998668
 },
 {
   "dispatch_date_time": "2021/5/5 13:34",
   "location_block": "2100 BLOCK S COLORADO ST",
   "ucr_general": 600,
   "text_general_code": "Theft from Vehicle",
   "lat": 39.92438179,
   "lng": -75.17534104
 },
 {
   "dispatch_date_time": "2021/5/5 13:32",
   "location_block": "200 BLOCK W OXFORD ST",
   "ucr_general": 600,
   "text_general_code": "Theft from Vehicle",
   "lat": 39.97506948,
   "lng": -75.14067569
 },
 {
   "dispatch_date_time": "2021/5/5 12:33",
   "location_block": "4600 BLOCK ADAMS AV",
   "ucr_general": 600,
   "text_general_code": "Theft from Vehicle",
   "lat": 40.02051205,
   "lng": -75.09387737
 },
 {
   "dispatch_date_time": "2021/5/5 12:15",
   "location_block": "4700 BLOCK SHELDON ST",
   "ucr_general": 600,
   "text_general_code": "Theft from Vehicle",
   "lat": 40.03358088,
   "lng": -75.22754092
 },
 {
   "dispatch_date_time": "2021/5/5 12:03",
   "location_block": "1600 BLOCK MURDOCH RD",
   "ucr_general": 600,
   "text_general_code": "Theft from Vehicle",
   "lat": 40.08349145,
   "lng": -75.17610778
 },
 {
   "dispatch_date_time": "2021/5/5 11:55",
   "location_block": "400 BLOCK WASHINGTON AV",
   "ucr_general": 600,
   "text_general_code": "Theft from Vehicle",
   "lat": 39.93389673,
   "lng": -75.15173763
 },
 {
   "dispatch_date_time": "2021/5/5 11:19",
   "location_block": "1400 BLOCK GERMANTOWN AV",
   "ucr_general": 600,
   "text_general_code": "Theft from Vehicle",
   "lat": 39.97256813,
   "lng": -75.14167922
 },
 {
   "dispatch_date_time": "2021/5/5 11:13",
   "location_block": "200 BLOCK RIPKA ST",
   "ucr_general": 600,
   "text_general_code": "Theft from Vehicle",
   "lat": 40.0320436,
   "lng": -75.22649156
 },
 {
   "dispatch_date_time": "2021/5/5 11:06",
   "location_block": "1900 BLOCK S HICKS ST",
   "ucr_general": 600,
   "text_general_code": "Theft from Vehicle",
   "lat": 39.92706938,
   "lng": -75.17142821
 },
 {
   "dispatch_date_time": "2021/5/5 10:28",
   "location_block": "1600 BLOCK W STILES ST",
   "ucr_general": 600,
   "text_general_code": "Theft from Vehicle",
   "lat": 39.97279727,
   "lng": -75.16253179
 },
 {
   "dispatch_date_time": "2021/5/5 9:09",
   "location_block": "8500 BLOCK EASTWICK PL",
   "ucr_general": 600,
   "text_general_code": "Theft from Vehicle",
   "lat": 39.89125287,
   "lng": -75.24627373
 },
 {
   "dispatch_date_time": "2021/5/5 8:46",
   "location_block": "1600 BLOCK W CAYUGA ST",
   "ucr_general": 600,
   "text_general_code": "Theft from Vehicle",
   "lat": 40.02062893,
   "lng": -75.15239327
 },
 {
   "dispatch_date_time": "2021/5/5 8:16",
   "location_block": "900 BLOCK S 54TH ST",
   "ucr_general": 600,
   "text_general_code": "Theft from Vehicle",
   "lat": 39.94582148,
   "lng": -75.22982731
 },
 {
   "dispatch_date_time": "2021/5/5 7:57",
   "location_block": "1900 BLOCK S BOUVIER ST",
   "ucr_general": 600,
   "text_general_code": "Theft from Vehicle",
   "lat": 39.92716126,
   "lng": -75.17497697
 },
 {
   "dispatch_date_time": "2021/5/5 7:49",
   "location_block": "1200 BLOCK W Ontario St",
   "ucr_general": 600,
   "text_general_code": "Theft from Vehicle",
   "lat": 40.00434008,
   "lng": -75.1493893
 },
 {
   "dispatch_date_time": "2021/5/5 7:38",
   "location_block": "8800 BLOCK BROCKLEHURST ST",
   "ucr_general": 600,
   "text_general_code": "Theft from Vehicle",
   "lat": 40.06602468,
   "lng": -75.03404162
 },
 {
   "dispatch_date_time": "2021/5/5 7:33",
   "location_block": "700 BLOCK E GODFREY AV",
   "ucr_general": 600,
   "text_general_code": "Theft from Vehicle",
   "lat": 40.03764813,
   "lng": -75.10061463
 },
 {
   "dispatch_date_time": "2021/5/5 7:19",
   "location_block": "4900 BLOCK SPRUCE ST",
   "ucr_general": 600,
   "text_general_code": "Theft from Vehicle",
   "lat": 39.95439766,
   "lng": -75.22153488
 },
 {
   "dispatch_date_time": "2021/5/5 7:07",
   "location_block": "2300 BLOCK W CUMBERLAND ST",
   "ucr_general": 600,
   "text_general_code": "Theft from Vehicle",
   "lat": 39.99309011,
   "lng": -75.17099059
 },
 {
   "dispatch_date_time": "2021/5/5 6:13",
   "location_block": "2900 BLOCK W CUMBERLAND ST",
   "ucr_general": 600,
   "text_general_code": "Theft from Vehicle",
   "lat": 39.99396237,
   "lng": -75.17927839
 },
 {
   "dispatch_date_time": "2021/5/5 5:15",
   "location_block": "5300 BLOCK IRVING ST",
   "ucr_general": 600,
   "text_general_code": "Theft from Vehicle",
   "lat": 39.95577998,
   "lng": -75.2290293
 },
 {
   "dispatch_date_time": "2021/5/5 5:15",
   "location_block": "3000 BLOCK NESPER ST",
   "ucr_general": 600,
   "text_general_code": "Theft from Vehicle",
   "lat": 40.04410034,
   "lng": -75.04650308
 },
 {
   "dispatch_date_time": "2021/5/5 3:48",
   "location_block": "1400 BLOCK W LYCOMING ST",
   "ucr_general": 600,
   "text_general_code": "Theft from Vehicle",
   "lat": 40.01533609,
   "lng": -75.15014769
 },
 {
   "dispatch_date_time": "2021/5/5 0:51",
   "location_block": "2200 BLOCK N LAWRENCE ST",
   "ucr_general": 600,
   "text_general_code": "Theft from Vehicle",
   "lat": 39.98461816,
   "lng": -75.14104136
 },
 {
   "dispatch_date_time": "2021/5/5 0:21",
   "location_block": "1600 BLOCK E LUZERNE ST",
   "ucr_general": 600,
   "text_general_code": "Theft from Vehicle",
   "lat": 40.00703037,
   "lng": -75.09619379
 },
 {
   "dispatch_date_time": "2021/5/4 23:52",
   "location_block": "200 BLOCK E WELLENS ST",
   "ucr_general": 900,
   "text_general_code": "Arson",
   "lat": 40.02939576,
   "lng": -75.1199391
 },
 {
   "dispatch_date_time": "2021/5/4 21:25",
   "location_block": "800 BLOCK PIERMONT ST",
   "ucr_general": 600,
   "text_general_code": "Theft from Vehicle",
   "lat": 40.11055328,
   "lng": -75.00713892
 },
 {
   "dispatch_date_time": "2021/5/4 21:14",
   "location_block": "2800 BLOCK WINCHESTER AV",
   "ucr_general": 600,
   "text_general_code": "Theft from Vehicle",
   "lat": 40.05498811,
   "lng": -75.03543112
 },
 {
   "dispatch_date_time": "2021/5/4 20:23",
   "location_block": "6100 BLOCK LARCHWOOD AV",
   "ucr_general": 600,
   "text_general_code": "Theft from Vehicle",
   "lat": 39.95422517,
   "lng": -75.24444449
 },
 {
   "dispatch_date_time": "2021/5/4 19:41",
   "location_block": "2000 BLOCK STANWOOD ST",
   "ucr_general": 600,
   "text_general_code": "Theft from Vehicle",
   "lat": 40.06211213,
   "lng": -75.05381929
 },
 {
   "dispatch_date_time": "2021/5/4 19:20",
   "location_block": "3400 BLOCK EDEN ST",
   "ucr_general": 600,
   "text_general_code": "Theft from Vehicle",
   "lat": 40.06435966,
   "lng": -75.00626615
 },
 {
   "dispatch_date_time": "2021/5/4 17:53",
   "location_block": "100 BLOCK Conarroe St",
   "ucr_general": 600,
   "text_general_code": "Theft from Vehicle",
   "lat": 40.02710216,
   "lng": -75.22473486
 },
 {
   "dispatch_date_time": "2021/5/4 17:33",
   "location_block": "LINCOLN DR  & W RITTENHOUSE ST ",
   "ucr_general": 600,
   "text_general_code": "Theft from Vehicle",
   "lat": 28.41954831,
   "lng": -81.58120216
 },
 {
   "dispatch_date_time": "2021/5/4 17:11",
   "location_block": "7800 BLOCK LAWNDALE ST",
   "ucr_general": 600,
   "text_general_code": "Theft from Vehicle",
   "lat": 40.06732254,
   "lng": -75.07417713
 },
 {
   "dispatch_date_time": "2021/5/4 16:34",
   "location_block": "800 BLOCK N 51ST ST",
   "ucr_general": 600,
   "text_general_code": "Theft from Vehicle",
   "lat": 39.96823299,
   "lng": -75.22256966
 },
 {
   "dispatch_date_time": "2021/5/4 15:08",
   "location_block": "1600 BLOCK FAIRMOUNT AV",
   "ucr_general": 600,
   "text_general_code": "Theft from Vehicle",
   "lat": 39.96696157,
   "lng": -75.16393204
 },
 {
   "dispatch_date_time": "2021/5/4 14:22",
   "location_block": "2800 BLOCK KENSINGTON AV",
   "ucr_general": 600,
   "text_general_code": "Theft from Vehicle",
   "lat": 39.99193796,
   "lng": -75.12121735
 },
 {
   "dispatch_date_time": "2021/5/4 14:21",
   "location_block": "1700 BLOCK MASTER ST",
   "ucr_general": 600,
   "text_general_code": "Theft from Vehicle",
   "lat": 39.97535934,
   "lng": -75.16393348
 },
 {
   "dispatch_date_time": "2021/5/4 14:08",
   "location_block": "2400 BLOCK W YORK ST",
   "ucr_general": 600,
   "text_general_code": "Theft from Vehicle",
   "lat": 39.99132015,
   "lng": -75.17233144
 },
 {
   "dispatch_date_time": "2021/5/4 13:01",
   "location_block": "2200 BLOCK GLENVIEW ST",
   "ucr_general": 900,
   "text_general_code": "Arson",
   "lat": 40.03930228,
   "lng": -75.06126108
 },
 {
   "dispatch_date_time": "2021/5/4 12:50",
   "location_block": "N 30TH ST  & MARKET ST ",
   "ucr_general": 600,
   "text_general_code": "Theft from Vehicle",
   "lat": 39.95482808,
   "lng": -75.18333683
 },
 {
   "dispatch_date_time": "2021/5/4 12:41",
   "location_block": "1500 BLOCK MC KEAN ST",
   "ucr_general": 600,
   "text_general_code": "Theft from Vehicle",
   "lat": 39.92581328,
   "lng": -75.17238113
 },
 {
   "dispatch_date_time": "2021/5/4 11:27",
   "location_block": "8800 BLOCK TINICUM BLVD",
   "ucr_general": 600,
   "text_general_code": "Theft from Vehicle",
   "lat": 39.88641403,
   "lng": -75.24544704
 },
 {
   "dispatch_date_time": "2021/5/4 11:27",
   "location_block": "2100 BLOCK DELANCEY PL",
   "ucr_general": 600,
   "text_general_code": "Theft from Vehicle",
   "lat": 39.94781347,
   "lng": -75.17776473
 },
 {
   "dispatch_date_time": "2021/5/4 10:28",
   "location_block": "2200 BLOCK STEWART ST",
   "ucr_general": 600,
   "text_general_code": "Theft from Vehicle",
   "lat": 39.97726895,
   "lng": -75.1724041
 },
 {
   "dispatch_date_time": "2021/5/4 9:22",
   "location_block": "7900 BLOCK POMPEY PL",
   "ucr_general": 600,
   "text_general_code": "Theft from Vehicle",
   "lat": 39.90379656,
   "lng": -75.24757336
 },
 {
   "dispatch_date_time": "2021/5/4 8:31",
   "location_block": "2400 BLOCK S 61ST ST",
   "ucr_general": 600,
   "text_general_code": "Theft from Vehicle",
   "lat": 39.92667177,
   "lng": -75.22521743
 },
 {
   "dispatch_date_time": "2021/5/4 8:28",
   "location_block": "100 BLOCK E Hartwell Ln",
   "ucr_general": 600,
   "text_general_code": "Theft from Vehicle",
   "lat": 40.07362674,
   "lng": -75.20193319
 },
 {
   "dispatch_date_time": "2021/5/4 8:18",
   "location_block": "100 BLOCK E CHELTENHAM AV",
   "ucr_general": 600,
   "text_general_code": "Theft from Vehicle",
   "lat": 40.04996933,
   "lng": -75.11704512
 },
 {
   "dispatch_date_time": "2021/5/4 7:59",
   "location_block": "2600 BLOCK PENROSE AV",
   "ucr_general": 600,
   "text_general_code": "Theft from Vehicle",
   "lat": 39.90551209,
   "lng": -75.1944559
 },
 {
   "dispatch_date_time": "2021/5/4 2:08",
   "location_block": "4900 BLOCK HOOPES ST",
   "ucr_general": 900,
   "text_general_code": "Arson",
   "lat": 39.96800341,
   "lng": -75.21993481
 },
 {
   "dispatch_date_time": "2021/5/4 1:56",
   "location_block": "600 BLOCK S 4TH ST",
   "ucr_general": 600,
   "text_general_code": "Theft from Vehicle",
   "lat": 39.94158571,
   "lng": -75.14921016
 },
 {
   "dispatch_date_time": "2021/5/4 1:52",
   "location_block": "600 BLOCK PARK LA",
   "ucr_general": 600,
   "text_general_code": "Theft from Vehicle",
   "lat": 40.03396064,
   "lng": -75.19206669
 },
 {
   "dispatch_date_time": "2021/5/3 23:47",
   "location_block": "6100 BLOCK OSAGE AV",
   "ucr_general": 600,
   "text_general_code": "Theft from Vehicle",
   "lat": 39.95498814,
   "lng": -75.24430962
 },
 {
   "dispatch_date_time": "2021/5/3 22:34",
   "location_block": "2100 BLOCK HAWORTH ST",
   "ucr_general": 900,
   "text_general_code": "Arson",
   "lat": 40.0119076,
   "lng": -75.07208723
 },
 {
   "dispatch_date_time": "2021/5/3 20:43",
   "location_block": "2800 BLOCK ORMES ST",
   "ucr_general": 600,
   "text_general_code": "Theft from Vehicle",
   "lat": 39.99250564,
   "lng": -75.12560246
 },
 {
   "dispatch_date_time": "2021/5/3 20:18",
   "location_block": "900 BLOCK Grakyn Ln",
   "ucr_general": 600,
   "text_general_code": "Theft from Vehicle",
   "lat": 40.06859647,
   "lng": -75.23224506
 },
 {
   "dispatch_date_time": "2021/5/3 20:18",
   "location_block": "1200 BLOCK N 17th St",
   "ucr_general": 600,
   "text_general_code": "Theft from Vehicle",
   "lat": 39.97211235,
   "lng": -75.16429371
 },
 {
   "dispatch_date_time": "2021/5/3 19:34",
   "location_block": "2500 BLOCK W SEDGLEY AV",
   "ucr_general": 600,
   "text_general_code": "Theft from Vehicle",
   "lat": 39.98911069,
   "lng": -75.17509029
 },
 {
   "dispatch_date_time": "2021/5/3 19:16",
   "location_block": "6600 BLOCK Woodcrest Ave",
   "ucr_general": 600,
   "text_general_code": "Theft from Vehicle",
   "lat": 39.98109394,
   "lng": -75.25500221
 },
 {
   "dispatch_date_time": "2021/5/3 18:42",
   "location_block": "1800 BLOCK S 58TH ST",
   "ucr_general": 600,
   "text_general_code": "Theft from Vehicle",
   "lat": 39.93655016,
   "lng": -75.2291384
 },
 {
   "dispatch_date_time": "2021/5/3 18:20",
   "location_block": "6000 BLOCK Race St",
   "ucr_general": 600,
   "text_general_code": "Theft from Vehicle",
   "lat": 39.96509034,
   "lng": -75.24043759
 },
 {
   "dispatch_date_time": "2021/5/3 18:19",
   "location_block": "5900 BLOCK MAGNOLIA ST",
   "ucr_general": 600,
   "text_general_code": "Theft from Vehicle",
   "lat": 40.0450413,
   "lng": -75.17083185
 },
 {
   "dispatch_date_time": "2021/5/3 18:16",
   "location_block": "600 BLOCK ROXBOROUGH AV",
   "ucr_general": 600,
   "text_general_code": "Theft from Vehicle",
   "lat": 40.03214341,
   "lng": -75.20633289
 },
 {
   "dispatch_date_time": "2021/5/3 18:04",
   "location_block": "5500 BLOCK BLAKEMORE ST",
   "ucr_general": 600,
   "text_general_code": "Theft from Vehicle",
   "lat": 40.04818002,
   "lng": -75.16014135
 },
 {
   "dispatch_date_time": "2021/5/3 17:25",
   "location_block": "400 BLOCK E GIRARD AV",
   "ucr_general": 600,
   "text_general_code": "Theft from Vehicle",
   "lat": 39.97049435,
   "lng": -75.12865233
 },
 {
   "dispatch_date_time": "2021/5/3 17:22",
   "location_block": "1400 BLOCK W THOMPSON ST",
   "ucr_general": 600,
   "text_general_code": "Theft from Vehicle",
   "lat": 39.97320174,
   "lng": -75.15907062
 },
 {
   "dispatch_date_time": "2021/5/3 16:40",
   "location_block": "100 BLOCK E OLNEY AV",
   "ucr_general": 600,
   "text_general_code": "Theft from Vehicle",
   "lat": 40.03579603,
   "lng": -75.12040713
 },
 {
   "dispatch_date_time": "2021/5/3 16:39",
   "location_block": "600 BLOCK S 60TH ST",
   "ucr_general": 600,
   "text_general_code": "Theft from Vehicle",
   "lat": 39.95217187,
   "lng": -75.24307172
 },
 {
   "dispatch_date_time": "2021/5/3 16:23",
   "location_block": "N 22ND ST & BENJAMIN FRANKLIN PKWY ",
   "ucr_general": 600,
   "text_general_code": "Theft from Vehicle",
   "lat": 39.9609368,
   "lng": -75.17515397
 },
 {
   "dispatch_date_time": "2021/5/3 16:19",
   "location_block": "2600 BLOCK N CHADWICK ST",
   "ucr_general": 600,
   "text_general_code": "Theft from Vehicle",
   "lat": 39.99366043,
   "lng": -75.1588444
 },
 {
   "dispatch_date_time": "2021/5/3 16:12",
   "location_block": "2900 BLOCK N BROAD ST",
   "ucr_general": 600,
   "text_general_code": "Theft from Vehicle",
   "lat": 39.99644031,
   "lng": -75.15607059
 },
 {
   "dispatch_date_time": "2021/5/3 15:42",
   "location_block": "8900 BLOCK FAIRFIELD ST",
   "ucr_general": 600,
   "text_general_code": "Theft from Vehicle",
   "lat": 40.07077359,
   "lng": -75.03642125
 },
 {
   "dispatch_date_time": "2021/5/3 14:44",
   "location_block": "4500 BLOCK ISLAND AV",
   "ucr_general": 600,
   "text_general_code": "Theft from Vehicle",
   "lat": 39.88417213,
   "lng": -75.23078211
 },
 {
   "dispatch_date_time": "2021/5/3 14:12",
   "location_block": "200 BLOCK BENNER ST",
   "ucr_general": 600,
   "text_general_code": "Theft from Vehicle",
   "lat": 40.04876045,
   "lng": -75.10384555
 },
 {
   "dispatch_date_time": "2021/5/3 14:11",
   "location_block": "3500 BLOCK N 9TH ST",
   "ucr_general": 900,
   "text_general_code": "Arson",
   "lat": 40.00509745,
   "lng": -75.14345438
 },
 {
   "dispatch_date_time": "2021/5/3 13:17",
   "location_block": "S 18TH ST & LOMBARD ST ",
   "ucr_general": 600,
   "text_general_code": "Theft from Vehicle",
   "lat": 39.94546578,
   "lng": -75.17169639
 },
 {
   "dispatch_date_time": "2021/5/3 12:54",
   "location_block": "1800 BLOCK S WATTS ST",
   "ucr_general": 600,
   "text_general_code": "Theft from Vehicle",
   "lat": 39.92761473,
   "lng": -75.16826314
 },
 {
   "dispatch_date_time": "2021/5/3 12:46",
   "location_block": "1200 BLOCK COTTMAN AV",
   "ucr_general": 600,
   "text_general_code": "Theft from Vehicle",
   "lat": 40.05903222,
   "lng": -75.07896787
 },
 {
   "dispatch_date_time": "2021/5/3 12:20",
   "location_block": "8300 BLOCK TORRESDALE AV",
   "ucr_general": 600,
   "text_general_code": "Theft from Vehicle",
   "lat": 40.03800551,
   "lng": -75.01656933
 },
 {
   "dispatch_date_time": "2021/5/3 12:15",
   "location_block": "FOUNTAIN GREEN DR & KELLY DR ",
   "ucr_general": 600,
   "text_general_code": "Theft from Vehicle",
   "lat": 39.98063046,
   "lng": -75.19800362
 },
 {
   "dispatch_date_time": "2021/5/3 11:54",
   "location_block": "1100 BLOCK W VENANGO ST",
   "ucr_general": 600,
   "text_general_code": "Theft from Vehicle",
   "lat": 40.00732041,
   "lng": -75.14739372
 },
 {
   "dispatch_date_time": "2021/5/3 11:34",
   "location_block": "1900 BLOCK HARTRANFT ST",
   "ucr_general": 600,
   "text_general_code": "Theft from Vehicle",
   "lat": 39.90893536,
   "lng": -75.18066157
 },
 {
   "dispatch_date_time": "2021/5/3 11:23",
   "location_block": "3400 BLOCK BELGRADE ST",
   "ucr_general": 600,
   "text_general_code": "Theft from Vehicle",
   "lat": 39.98914114,
   "lng": -75.09856176
 },
 {
   "dispatch_date_time": "2021/5/3 10:49",
   "location_block": "2600 BLOCK S 5TH ST",
   "ucr_general": 600,
   "text_general_code": "Theft from Vehicle",
   "lat": 39.91599868,
   "lng": -75.15648743
 },
 {
   "dispatch_date_time": "2021/5/3 10:41",
   "location_block": "1900 BLOCK ARCH ST",
   "ucr_general": 600,
   "text_general_code": "Theft from Vehicle",
   "lat": 39.95542445,
   "lng": -75.17119316
 },
 {
   "dispatch_date_time": "2021/5/3 10:27",
   "location_block": "7700 BLOCK LINDBERGH BLVD",
   "ucr_general": 600,
   "text_general_code": "Theft from Vehicle",
   "lat": 39.9048293,
   "lng": -75.24303012
 },
 {
   "dispatch_date_time": "2021/5/3 10:24",
   "location_block": "7700 BLOCK LINDBERGH BLVD",
   "ucr_general": 600,
   "text_general_code": "Theft from Vehicle",
   "lat": 39.9048293,
   "lng": -75.24303012
 },
 {
   "dispatch_date_time": "2021/5/3 10:07",
   "location_block": "3100 BLOCK E Thompson St",
   "ucr_general": 600,
   "text_general_code": "Theft from Vehicle",
   "lat": 39.98436064,
   "lng": -75.10322691
 },
 {
   "dispatch_date_time": "2021/5/3 10:05",
   "location_block": "2500 BLOCK S 4th St",
   "ucr_general": 600,
   "text_general_code": "Theft from Vehicle",
   "lat": 39.91694384,
   "lng": -75.15458567
 },
 {
   "dispatch_date_time": "2021/5/3 9:32",
   "location_block": "800 BLOCK N CARLISLE ST",
   "ucr_general": 600,
   "text_general_code": "Theft from Vehicle",
   "lat": 39.96866531,
   "lng": -75.16112949
 },
 {
   "dispatch_date_time": "2021/5/3 9:01",
   "location_block": "3000 BLOCK EMERALD ST",
   "ucr_general": 600,
   "text_general_code": "Theft from Vehicle",
   "lat": 39.99253469,
   "lng": -75.11410649
 },
 {
   "dispatch_date_time": "2021/5/3 8:46",
   "location_block": "1600 BLOCK POPLAR ST",
   "ucr_general": 600,
   "text_general_code": "Theft from Vehicle",
   "lat": 39.97050054,
   "lng": -75.16364364
 },
 {
   "dispatch_date_time": "2021/5/3 8:32",
   "location_block": "6800 BLOCK N 7TH ST",
   "ucr_general": 600,
   "text_general_code": "Theft from Vehicle",
   "lat": 40.05558519,
   "lng": -75.13000644
 },
 {
   "dispatch_date_time": "2021/5/3 8:17",
   "location_block": "2100 BLOCK PARRISH ST",
   "ucr_general": 600,
   "text_general_code": "Theft from Vehicle",
   "lat": 39.97048848,
   "lng": -75.17261558
 },
 {
   "dispatch_date_time": "2021/5/3 8:01",
   "location_block": "1500 BLOCK CHESTNUT ST",
   "ucr_general": 600,
   "text_general_code": "Theft from Vehicle",
   "lat": 39.9513244,
   "lng": -75.16590926
 },
 {
   "dispatch_date_time": "2021/5/3 7:58",
   "location_block": "900 BLOCK Poplar Dr",
   "ucr_general": 600,
   "text_general_code": "Theft from Vehicle",
   "lat": 39.97365339,
   "lng": -75.18703262
 },
 {
   "dispatch_date_time": "2021/5/3 7:35",
   "location_block": "2400 BLOCK E VENANGO ST FRONT",
   "ucr_general": 600,
   "text_general_code": "Theft from Vehicle",
   "lat": 39.99242716,
   "lng": -75.09661582
 },
 {
   "dispatch_date_time": "2021/5/3 6:11",
   "location_block": "5100 BLOCK HAVERFORD AV",
   "ucr_general": 600,
   "text_general_code": "Theft from Vehicle",
   "lat": 39.96459146,
   "lng": -75.22371723
 },
 {
   "dispatch_date_time": "2021/5/3 1:23",
   "location_block": "101e Ashmead St ",
   "ucr_general": 900,
   "text_general_code": "Arson",
   "lat": 40.03276736,
   "lng": -75.16500901
 },
 {
   "dispatch_date_time": "2021/5/2 23:51",
   "location_block": "1600 BLOCK 66TH AV",
   "ucr_general": 600,
   "text_general_code": "Theft from Vehicle",
   "lat": 40.05402027,
   "lng": -75.1447847
 },
 {
   "dispatch_date_time": "2021/5/2 20:49",
   "location_block": "200 BLOCK FRANKLIN MILLS CIR",
   "ucr_general": 600,
   "text_general_code": "Theft from Vehicle",
   "lat": 40.08472541,
   "lng": -74.96444407
 },
 {
   "dispatch_date_time": "2021/5/2 20:09",
   "location_block": "100 BLOCK E OLNEY AV",
   "ucr_general": 600,
   "text_general_code": "Theft from Vehicle",
   "lat": 40.03579603,
   "lng": -75.12040713
 },
 {
   "dispatch_date_time": "2021/5/2 17:27",
   "location_block": "Haines St And Musgrave St ",
   "ucr_general": 600,
   "text_general_code": "Theft from Vehicle",
   "lat": 28.41954831,
   "lng": -81.58120216
 },
 {
   "dispatch_date_time": "2021/5/2 17:12",
   "location_block": "2400 BLOCK N PARK AV",
   "ucr_general": 600,
   "text_general_code": "Theft from Vehicle",
   "lat": 39.99007968,
   "lng": -75.15391319
 },
 {
   "dispatch_date_time": "2021/5/2 16:56",
   "location_block": "0 BLOCK FRANKLIN MILLS BLVD",
   "ucr_general": 600,
   "text_general_code": "Theft from Vehicle",
   "lat": 40.08469203,
   "lng": -74.96548413
 },
 {
   "dispatch_date_time": "2021/5/2 15:57",
   "location_block": "0 BLOCK W TULPEHOCKEN ST",
   "ucr_general": 600,
   "text_general_code": "Theft from Vehicle",
   "lat": 40.04084467,
   "lng": -75.18081653
 },
 {
   "dispatch_date_time": "2021/5/2 15:09",
   "location_block": "8600 BLOCK BARTRAM AV",
   "ucr_general": 600,
   "text_general_code": "Theft from Vehicle",
   "lat": 39.88948661,
   "lng": -75.24514044
 },
 {
   "dispatch_date_time": "2021/5/2 13:19",
   "location_block": "900 BLOCK E Columbia Ave",
   "ucr_general": 600,
   "text_general_code": "Theft from Vehicle",
   "lat": 39.967361,
   "lng": -75.12893522
 },
 {
   "dispatch_date_time": "2021/5/2 13:06",
   "location_block": "7800 BLOCK MIDIS PL",
   "ucr_general": 600,
   "text_general_code": "Theft from Vehicle",
   "lat": 39.90429445,
   "lng": -75.24611861
 },
 {
   "dispatch_date_time": "2021/5/2 12:45",
   "location_block": "500 BLOCK W LUZERNE ST",
   "ucr_general": 600,
   "text_general_code": "Theft from Vehicle",
   "lat": 40.01202106,
   "lng": -75.13620291
 },
 {
   "dispatch_date_time": "2021/5/2 10:53",
   "location_block": "4400 BLOCK DRIFTWOOD DR",
   "ucr_general": 600,
   "text_general_code": "Theft from Vehicle",
   "lat": 40.01247005,
   "lng": -75.19818987
 },
 {
   "dispatch_date_time": "2021/5/2 10:05",
   "location_block": "1500 BLOCK TASKER ST",
   "ucr_general": 600,
   "text_general_code": "Theft from Vehicle",
   "lat": 39.93089043,
   "lng": -75.17163447
 },
 {
   "dispatch_date_time": "2021/5/2 8:58",
   "location_block": "RED LION RD  & ACADEMY RD ",
   "ucr_general": 600,
   "text_general_code": "Theft from Vehicle",
   "lat": 40.08003219,
   "lng": -74.99723639
 },
 {
   "dispatch_date_time": "2021/5/2 8:27",
   "location_block": "5100 BLOCK CHANCELLOR ST",
   "ucr_general": 600,
   "text_general_code": "Theft from Vehicle",
   "lat": 39.95645133,
   "lng": -75.22513846
 },
 {
   "dispatch_date_time": "2021/5/2 8:24",
   "location_block": "3100 BLOCK ARAMINGO AV",
   "ucr_general": 600,
   "text_general_code": "Theft from Vehicle",
   "lat": 39.98726752,
   "lng": -75.10877703
 },
 {
   "dispatch_date_time": "2021/5/2 8:12",
   "location_block": "8100 BLOCK HARLEY AV",
   "ucr_general": 600,
   "text_general_code": "Theft from Vehicle",
   "lat": 39.89735087,
   "lng": -75.24227792
 },
 {
   "dispatch_date_time": "2021/5/2 7:40",
   "location_block": "5000 BLOCK PINE ST",
   "ucr_general": 600,
   "text_general_code": "Theft from Vehicle",
   "lat": 39.95343421,
   "lng": -75.22306492
 },
 {
   "dispatch_date_time": "2021/5/2 5:14",
   "location_block": "BELGRADE ST & E ALLEGHENY AV ",
   "ucr_general": 600,
   "text_general_code": "Theft from Vehicle",
   "lat": 39.98628252,
   "lng": -75.10436792
 },
 {
   "dispatch_date_time": "2021/5/2 3:41",
   "location_block": "2100 BLOCK N UBER ST",
   "ucr_general": 600,
   "text_general_code": "Theft from Vehicle",
   "lat": 39.98649806,
   "lng": -75.16492807
 },
 {
   "dispatch_date_time": "2021/5/2 3:19",
   "location_block": "800 BLOCK N MARKOE ST",
   "ucr_general": 900,
   "text_general_code": "Arson",
   "lat": 39.96663777,
   "lng": -75.21466035
 },
 {
   "dispatch_date_time": "2021/5/2 1:12",
   "location_block": "800 BLOCK S 8TH ST",
   "ucr_general": 600,
   "text_general_code": "Theft from Vehicle",
   "lat": 39.93929109,
   "lng": -75.15621673
 },
 {
   "dispatch_date_time": "2021/5/2 0:27",
   "location_block": "1700 BLOCK W ONTARIO ST",
   "ucr_general": 600,
   "text_general_code": "Theft from Vehicle",
   "lat": 40.00533455,
   "lng": -75.15755236
 },
 {
   "dispatch_date_time": "2021/5/1 18:06",
   "location_block": "5600 BLOCK MASTER ST",
   "ucr_general": 600,
   "text_general_code": "Theft from Vehicle",
   "lat": 39.97346416,
   "lng": -75.23337909
 },
 {
   "dispatch_date_time": "2021/5/1 17:34",
   "location_block": "500 BLOCK E WYOMING AV",
   "ucr_general": 600,
   "text_general_code": "Theft from Vehicle",
   "lat": 40.02031598,
   "lng": -75.11612316
 },
 {
   "dispatch_date_time": "2021/5/1 16:56",
   "location_block": "5900 BLOCK N 11TH ST",
   "ucr_general": 600,
   "text_general_code": "Theft from Vehicle",
   "lat": 40.04289124,
   "lng": -75.13865061
 },
 {
   "dispatch_date_time": "2021/5/1 16:48",
   "location_block": "3800 BLOCK KENSINGTON AV",
   "ucr_general": 600,
   "text_general_code": "Theft from Vehicle",
   "lat": 40.0048456,
   "lng": -75.0969293
 },
 {
   "dispatch_date_time": "2021/5/1 16:20",
   "location_block": "4800 BLOCK FILLMORE TER",
   "ucr_general": 600,
   "text_general_code": "Theft from Vehicle",
   "lat": 40.02763299,
   "lng": -75.09514825
 },
 {
   "dispatch_date_time": "2021/5/1 15:35",
   "location_block": "2500 BLOCK N 5TH ST",
   "ucr_general": 600,
   "text_general_code": "Theft from Vehicle",
   "lat": 39.99031972,
   "lng": -75.14088671
 },
 {
   "dispatch_date_time": "2021/5/1 15:09",
   "location_block": "9800 BLOCK BLUE GRASS RD",
   "ucr_general": 600,
   "text_general_code": "Theft from Vehicle",
   "lat": 40.0815336,
   "lng": -75.02092463
 },
 {
   "dispatch_date_time": "2021/5/1 13:19",
   "location_block": "3600 BLOCK Mount Pleasant",
   "ucr_general": 600,
   "text_general_code": "Theft from Vehicle",
   "lat": 39.98449155,
   "lng": -75.19602176
 },
 {
   "dispatch_date_time": "2021/5/1 12:51",
   "location_block": "7800 BLOCK BROUS AV",
   "ucr_general": 600,
   "text_general_code": "Theft from Vehicle",
   "lat": 40.05256109,
   "lng": -75.04336881
 },
 {
   "dispatch_date_time": "2021/5/1 9:51",
   "location_block": "1800 BLOCK SANSOM ST",
   "ucr_general": 600,
   "text_general_code": "Theft from Vehicle",
   "lat": 39.95098124,
   "lng": -75.17088103
 },
 {
   "dispatch_date_time": "2021/5/1 7:55",
   "location_block": "400 BLOCK E PHIL ELLENA ST",
   "ucr_general": 600,
   "text_general_code": "Theft from Vehicle",
   "lat": 40.05730733,
   "lng": -75.17990886
 },
 {
   "dispatch_date_time": "2021/5/1 6:26",
   "location_block": "ARAMINGO AV & CEDAR ST ",
   "ucr_general": 600,
   "text_general_code": "Theft from Vehicle",
   "lat": 39.98316652,
   "lng": -75.11525311
 },
 {
   "dispatch_date_time": "2021/5/1 6:07",
   "location_block": "900 BLOCK N 63RD ST D",
   "ucr_general": 900,
   "text_general_code": "Arson",
   "lat": 39.97940104,
   "lng": -75.24561047
 },
 {
   "dispatch_date_time": "2021/5/1 6:07",
   "location_block": "3400 BLOCK TAMPA ST",
   "ucr_general": 900,
   "text_general_code": "Arson",
   "lat": 40.00028841,
   "lng": -75.11757115
 },
 {
   "dispatch_date_time": "2021/5/1 4:18",
   "location_block": "6000 BLOCK DELANCEY ST",
   "ucr_general": 900,
   "text_general_code": "Arson",
   "lat": 39.95599255,
   "lng": -75.24289089
 },
 {
   "dispatch_date_time": "2021/4/30 23:46",
   "location_block": "4300 BLOCK N 9TH ST",
   "ucr_general": 600,
   "text_general_code": "Theft from Vehicle",
   "lat": 40.01745455,
   "lng": -75.14077493
 },
 {
   "dispatch_date_time": "2021/4/30 23:05",
   "location_block": "800 BLOCK CHURCH LA",
   "ucr_general": 900,
   "text_general_code": "Arson",
   "lat": 40.04471629,
   "lng": -75.16061348
 },
 {
   "dispatch_date_time": "2021/4/30 21:29",
   "location_block": "600 BLOCK N 12TH ST",
   "ucr_general": 600,
   "text_general_code": "Theft from Vehicle",
   "lat": 39.96425076,
   "lng": -75.1569443
 },
 {
   "dispatch_date_time": "2021/4/30 21:04",
   "location_block": "3300 BLOCK W HUNTINGDON ST",
   "ucr_general": 600,
   "text_general_code": "Theft from Vehicle",
   "lat": 39.99657541,
   "lng": -75.18620856
 },
 {
   "dispatch_date_time": "2021/4/30 20:10",
   "location_block": "4500 BLOCK LORING ST",
   "ucr_general": 600,
   "text_general_code": "Theft from Vehicle",
   "lat": 40.0331415,
   "lng": -75.03333389
 },
 {
   "dispatch_date_time": "2021/4/30 19:43",
   "location_block": "7500 BLOCK RISING SUN AV",
   "ucr_general": 600,
   "text_general_code": "Theft from Vehicle",
   "lat": 40.06493824,
   "lng": -75.08132462
 },
 {
   "dispatch_date_time": "2021/4/30 19:20",
   "location_block": "2000 BLOCK E CORNWALL ST",
   "ucr_general": 600,
   "text_general_code": "Theft from Vehicle",
   "lat": 39.99539694,
   "lng": -75.10836159
 },
 {
   "dispatch_date_time": "2021/4/30 19:17",
   "location_block": "7900 BLOCK STATE RD",
   "ucr_general": 600,
   "text_general_code": "Theft from Vehicle",
   "lat": 40.03112851,
   "lng": -75.0220226
 },
 {
   "dispatch_date_time": "2021/4/30 17:58",
   "location_block": "2200 BLOCK ORTHODOX ST",
   "ucr_general": 600,
   "text_general_code": "Theft from Vehicle",
   "lat": 40.00817423,
   "lng": -75.07870294
 },
 {
   "dispatch_date_time": "2021/4/30 17:11",
   "location_block": "6000 BLOCK LANSDOWNE AV",
   "ucr_general": 600,
   "text_general_code": "Theft from Vehicle",
   "lat": 39.97575234,
   "lng": -75.24140722
 },
 {
   "dispatch_date_time": "2021/4/30 15:56",
   "location_block": "1300 BLOCK HARRISON ST",
   "ucr_general": 600,
   "text_general_code": "Theft from Vehicle",
   "lat": 40.02040964,
   "lng": -75.08491932
 },
 {
   "dispatch_date_time": "2021/4/30 14:36",
   "location_block": "300 BLOCK E ONTARIO ST",
   "ucr_general": 600,
   "text_general_code": "Theft from Vehicle",
   "lat": 40.00115831,
   "lng": -75.12380183
 },
 {
   "dispatch_date_time": "2021/4/30 14:33",
   "location_block": "1400 BLOCK N Hancock  St",
   "ucr_general": 600,
   "text_general_code": "Theft from Vehicle",
   "lat": 39.97346396,
   "lng": -75.13763218
 },
 {
   "dispatch_date_time": "2021/4/30 14:18",
   "location_block": "4600 BLOCK PECHIN ST",
   "ucr_general": 600,
   "text_general_code": "Theft from Vehicle",
   "lat": 40.03418105,
   "lng": -75.22101264
 },
 {
   "dispatch_date_time": "2021/4/30 13:41",
   "location_block": "2300 BLOCK AMBER ST",
   "ucr_general": 600,
   "text_general_code": "Theft from Vehicle",
   "lat": 39.98207585,
   "lng": -75.12969702
 },
 {
   "dispatch_date_time": "2021/4/30 13:24",
   "location_block": "2000 BLOCK S 7TH ST",
   "ucr_general": 600,
   "text_general_code": "Theft from Vehicle",
   "lat": 39.92342169,
   "lng": -75.15812805
 },
 {
   "dispatch_date_time": "2021/4/30 12:47",
   "location_block": "HARBISON AV  & TULIP ST ",
   "ucr_general": 600,
   "text_general_code": "Theft from Vehicle",
   "lat": 40.01220102,
   "lng": -75.0692914
 },
 {
   "dispatch_date_time": "2021/4/30 12:22",
   "location_block": "3300 BLOCK KENSINGTON AV",
   "ucr_general": 600,
   "text_general_code": "Theft from Vehicle",
   "lat": 39.9982282,
   "lng": -75.11040025
 },
 {
   "dispatch_date_time": "2021/4/30 11:52",
   "location_block": "2400 BLOCK CHESTNUT ST",
   "ucr_general": 900,
   "text_general_code": "Arson",
   "lat": 39.95248589,
   "lng": -75.1797249
 },
 {
   "dispatch_date_time": "2021/4/30 11:13",
   "location_block": "800 BLOCK W Bells Mills Rd",
   "ucr_general": 600,
   "text_general_code": "Theft from Vehicle",
   "lat": 28.41971521,
   "lng": -81.58137853
 },
 {
   "dispatch_date_time": "2021/4/30 11:05",
   "location_block": "3800 BLOCK ARCHER ST",
   "ucr_general": 600,
   "text_general_code": "Theft from Vehicle",
   "lat": 40.0123878,
   "lng": -75.16010446
 },
 {
   "dispatch_date_time": "2021/4/30 10:35",
   "location_block": "5300 BLOCK LOCUST ST",
   "ucr_general": 600,
   "text_general_code": "Theft from Vehicle",
   "lat": 39.9559817,
   "lng": -75.22875241
 },
 {
   "dispatch_date_time": "2021/4/30 10:25",
   "location_block": "1800 BLOCK W MONTGOMERY AV",
   "ucr_general": 600,
   "text_general_code": "Theft from Vehicle",
   "lat": 39.98092172,
   "lng": -75.16409184
 },
 {
   "dispatch_date_time": "2021/4/30 10:08",
   "location_block": "200 BLOCK W PASTORIUS ST",
   "ucr_general": 600,
   "text_general_code": "Theft from Vehicle",
   "lat": 40.03651781,
   "lng": -75.18414772
 },
 {
   "dispatch_date_time": "2021/4/30 9:54",
   "location_block": "12000 BLOCK E ROOSEVELT BLVD",
   "ucr_general": 600,
   "text_general_code": "Theft from Vehicle",
   "lat": 40.10563434,
   "lng": -74.99980736
 },
 {
   "dispatch_date_time": "2021/4/30 9:38",
   "location_block": "2000 BLOCK WAKELING ST",
   "ucr_general": 600,
   "text_general_code": "Theft from Vehicle",
   "lat": 40.01275672,
   "lng": -75.0753039
 },
 {
   "dispatch_date_time": "2021/4/30 9:29",
   "location_block": "4400 BLOCK N 15TH ST",
   "ucr_general": 600,
   "text_general_code": "Theft from Vehicle",
   "lat": 40.02148921,
   "lng": -75.15050064
 },
 {
   "dispatch_date_time": "2021/4/30 8:09",
   "location_block": "2900 BLOCK ELLA ST",
   "ucr_general": 900,
   "text_general_code": "Arson",
   "lat": 39.99408302,
   "lng": -75.12737329
 },
 {
   "dispatch_date_time": "2021/4/30 7:49",
   "location_block": "3000 BLOCK ARAMINGO AV",
   "ucr_general": 600,
   "text_general_code": "Theft from Vehicle",
   "lat": 39.98630537,
   "lng": -75.11044743
 },
 {
   "dispatch_date_time": "2021/4/30 7:30",
   "location_block": "3700 BLOCK MECHANICSVILLE PL",
   "ucr_general": 600,
   "text_general_code": "Theft from Vehicle",
   "lat": 40.09416234,
   "lng": -74.96355624
 },
 {
   "dispatch_date_time": "2021/4/30 1:03",
   "location_block": "100 BLOCK MANHEIM ST",
   "ucr_general": 600,
   "text_general_code": "Theft from Vehicle",
   "lat": 40.02816525,
   "lng": -75.16768125
 },
 {
   "dispatch_date_time": "2021/4/29 20:52",
   "location_block": "2000 BLOCK S 9TH ST 2",
   "ucr_general": 600,
   "text_general_code": "Theft from Vehicle",
   "lat": 39.92382019,
   "lng": -75.16096849
 },
 {
   "dispatch_date_time": "2021/4/29 19:04",
   "location_block": "4900 BLOCK PENNWAY ST",
   "ucr_general": 600,
   "text_general_code": "Theft from Vehicle",
   "lat": 40.02342399,
   "lng": -75.11009572
 },
 {
   "dispatch_date_time": "2021/4/29 18:16",
   "location_block": "KELLY DR  & LEMON HILL DR ",
   "ucr_general": 600,
   "text_general_code": "Theft from Vehicle",
   "lat": 39.98676742,
   "lng": -75.20753428
 },
 {
   "dispatch_date_time": "2021/4/29 17:56",
   "location_block": "9800 BLOCK COWDEN ST",
   "ucr_general": 600,
   "text_general_code": "Theft from Vehicle",
   "lat": 40.09268837,
   "lng": -75.02594509
 },
 {
   "dispatch_date_time": "2021/4/29 17:40",
   "location_block": "3200 BLOCK BOUDINOT ST",
   "ucr_general": 600,
   "text_general_code": "Theft from Vehicle",
   "lat": 39.99825829,
   "lng": -75.12192584
 },
 {
   "dispatch_date_time": "2021/4/29 16:50",
   "location_block": "5300 BLOCK FRANKFORD AV",
   "ucr_general": 600,
   "text_general_code": "Theft from Vehicle",
   "lat": 40.02330808,
   "lng": -75.07680968
 },
 {
   "dispatch_date_time": "2021/4/29 16:45",
   "location_block": "5400 BLOCK TACOMA ST",
   "ucr_general": 600,
   "text_general_code": "Theft from Vehicle",
   "lat": 40.028942,
   "lng": -75.17553453
 },
 {
   "dispatch_date_time": "2021/4/29 16:31",
   "location_block": "800 BLOCK N 5TH ST",
   "ucr_general": 600,
   "text_general_code": "Theft from Vehicle",
   "lat": 39.96444761,
   "lng": -75.14646486
 },
 {
   "dispatch_date_time": "2021/4/29 14:33",
   "location_block": "7500 BLOCK OXFORD AV",
   "ucr_general": 600,
   "text_general_code": "Theft from Vehicle",
   "lat": 40.06601007,
   "lng": -75.08349781
 },
 {
   "dispatch_date_time": "2021/4/29 12:35",
   "location_block": "11900 BLOCK AUDUBON AV",
   "ucr_general": 600,
   "text_general_code": "Theft from Vehicle",
   "lat": 40.1242793,
   "lng": -75.02543677
 },
 {
   "dispatch_date_time": "2021/4/29 12:31",
   "location_block": "6500 BLOCK N GRATZ ST",
   "ucr_general": 600,
   "text_general_code": "Theft from Vehicle",
   "lat": 40.05405752,
   "lng": -75.14858309
 },
 {
   "dispatch_date_time": "2021/4/29 12:12",
   "location_block": "FDR PARK @ 3602 S BROAD ST ",
   "ucr_general": 600,
   "text_general_code": "Theft from Vehicle",
   "lat": 28.41971521,
   "lng": -81.58137853
 },
 {
   "dispatch_date_time": "2021/4/29 11:30",
   "location_block": "1900 BLOCK S 22ND ST",
   "ucr_general": 600,
   "text_general_code": "Theft from Vehicle",
   "lat": 39.92748686,
   "lng": -75.18265267
 },
 {
   "dispatch_date_time": "2021/4/29 11:00",
   "location_block": "10100 BLOCK SANDMEYER LA",
   "ucr_general": 600,
   "text_general_code": "Theft from Vehicle",
   "lat": 40.11539482,
   "lng": -75.0402019
 },
 {
   "dispatch_date_time": "2021/4/29 9:50",
   "location_block": "ART MUSEUM @ 2500 SPRING GARDEN ST ",
   "ucr_general": 600,
   "text_general_code": "Theft from Vehicle",
   "lat": 28.41954831,
   "lng": -81.58120216
 },
 {
   "dispatch_date_time": "2021/4/29 9:45",
   "location_block": "7100 BLOCK WOODLAND AV",
   "ucr_general": 600,
   "text_general_code": "Theft from Vehicle",
   "lat": 39.91880713,
   "lng": -75.24283039
 },
 {
   "dispatch_date_time": "2021/4/29 9:24",
   "location_block": "5600 BLOCK N 3RD ST",
   "ucr_general": 600,
   "text_general_code": "Theft from Vehicle",
   "lat": 40.03678119,
   "lng": -75.12723369
 },
 {
   "dispatch_date_time": "2021/4/29 9:02",
   "location_block": "D ST & E ALLEGHENY AV ",
   "ucr_general": 600,
   "text_general_code": "Theft from Vehicle",
   "lat": 39.99751773,
   "lng": -75.12126454
 },
 {
   "dispatch_date_time": "2021/4/29 8:36",
   "location_block": "300 BLOCK LEVERINGTON AV",
   "ucr_general": 600,
   "text_general_code": "Theft from Vehicle",
   "lat": 40.03155904,
   "lng": -75.22495528
 },
 {
   "dispatch_date_time": "2021/4/29 8:30",
   "location_block": "1400 BLOCK W ONTARIO ST",
   "ucr_general": 600,
   "text_general_code": "Theft from Vehicle",
   "lat": 40.00489317,
   "lng": -75.1538837
 },
 {
   "dispatch_date_time": "2021/4/29 8:23",
   "location_block": "3400 BLOCK HAMILTON ST",
   "ucr_general": 600,
   "text_general_code": "Theft from Vehicle",
   "lat": 39.96186385,
   "lng": -75.19210613
 },
 {
   "dispatch_date_time": "2021/4/29 8:01",
   "location_block": "8100 BLOCK REVERE ST",
   "ucr_general": 600,
   "text_general_code": "Theft from Vehicle",
   "lat": 40.05649265,
   "lng": -75.04154264
 },
 {
   "dispatch_date_time": "2021/4/29 7:51",
   "location_block": "1400 BLOCK W YORK ST",
   "ucr_general": 600,
   "text_general_code": "Theft from Vehicle",
   "lat": 39.98939839,
   "lng": -75.15708755
 },
 {
   "dispatch_date_time": "2021/4/29 5:47",
   "location_block": "1800 BLOCK PLYMOUTH ST",
   "ucr_general": 600,
   "text_general_code": "Theft from Vehicle",
   "lat": 40.06434523,
   "lng": -75.1459408
 },
 {
   "dispatch_date_time": "2021/4/29 3:56",
   "location_block": "3800 BLOCK Richmond St",
   "ucr_general": 900,
   "text_general_code": "Arson",
   "lat": 39.99036022,
   "lng": -75.08714117
 },
 {
   "dispatch_date_time": "2021/4/29 3:38",
   "location_block": "9800 BLOCK HARDY RD",
   "ucr_general": 600,
   "text_general_code": "Theft from Vehicle",
   "lat": 40.09170999,
   "lng": -75.02848259
 },
 {
   "dispatch_date_time": "2021/4/29 2:46",
   "location_block": "1500 BLOCK N SYDENHAM ST",
   "ucr_general": 600,
   "text_general_code": "Theft from Vehicle",
   "lat": 39.97622168,
   "lng": -75.16097259
 },
 {
   "dispatch_date_time": "2021/4/29 0:54",
   "location_block": "3800 BLOCK N 8TH ST",
   "ucr_general": 600,
   "text_general_code": "Theft from Vehicle",
   "lat": 40.01035924,
   "lng": -75.14145225
 },
 {
   "dispatch_date_time": "2021/4/29 0:47",
   "location_block": "1900 BLOCK E TIOGA ST",
   "ucr_general": 900,
   "text_general_code": "Arson",
   "lat": 39.99845825,
   "lng": -75.10452757
 },
 {
   "dispatch_date_time": "2021/4/28 22:43",
   "location_block": "5800 BLOCK ERDRICK ST",
   "ucr_general": 600,
   "text_general_code": "Theft from Vehicle",
   "lat": 40.02214652,
   "lng": -75.0654483
 },
 {
   "dispatch_date_time": "2021/4/28 21:26",
   "location_block": "600 BLOCK W SOMERSET ST",
   "ucr_general": 600,
   "text_general_code": "Theft from Vehicle",
   "lat": 39.99402985,
   "lng": -75.14265893
 },
 {
   "dispatch_date_time": "2021/4/28 20:54",
   "location_block": "1400 BLOCK N 17TH ST",
   "ucr_general": 600,
   "text_general_code": "Theft from Vehicle",
   "lat": 39.97593578,
   "lng": -75.16370617
 },
 {
   "dispatch_date_time": "2021/4/28 16:38",
   "location_block": "800 BLOCK COTTMAN AV",
   "ucr_general": 600,
   "text_general_code": "Theft from Vehicle",
   "lat": 40.06140314,
   "lng": -75.08842758
 },
 {
   "dispatch_date_time": "2021/4/28 16:08",
   "location_block": "500 BLOCK W Berks St",
   "ucr_general": 600,
   "text_general_code": "Theft from Vehicle",
   "lat": 39.97988679,
   "lng": -75.14316751
 },
 {
   "dispatch_date_time": "2021/4/28 15:49",
   "location_block": "1200 BLOCK CLOVER ST",
   "ucr_general": 900,
   "text_general_code": "Arson",
   "lat": 39.95087712,
   "lng": -75.16012387
 },
 {
   "dispatch_date_time": "2021/4/28 14:45",
   "location_block": "8400 BLOCK E ROOSEVELT BLVD",
   "ucr_general": 600,
   "text_general_code": "Theft from Vehicle",
   "lat": 40.0622988,
   "lng": -75.04059206
 },
 {
   "dispatch_date_time": "2021/4/28 14:00",
   "location_block": "2100 BLOCK FERNON ST",
   "ucr_general": 600,
   "text_general_code": "Theft from Vehicle",
   "lat": 39.93149435,
   "lng": -75.18046271
 },
 {
   "dispatch_date_time": "2021/4/28 13:58",
   "location_block": "100 BLOCK MALLORY ST",
   "ucr_general": 600,
   "text_general_code": "Theft from Vehicle",
   "lat": 40.02901516,
   "lng": -75.22849279
 },
 {
   "dispatch_date_time": "2021/4/28 12:49",
   "location_block": "3800 BLOCK OLIVE ST",
   "ucr_general": 600,
   "text_general_code": "Theft from Vehicle",
   "lat": 39.9659632,
   "lng": -75.19943057
 },
 {
   "dispatch_date_time": "2021/4/28 12:46",
   "location_block": "1000 BLOCK FRANKFORD AV",
   "ucr_general": 600,
   "text_general_code": "Theft from Vehicle",
   "lat": 39.96637,
   "lng": -75.13412868
 },
 {
   "dispatch_date_time": "2021/4/28 12:13",
   "location_block": "4500 BLOCK N BODINE ST",
   "ucr_general": 600,
   "text_general_code": "Theft from Vehicle",
   "lat": 40.01983007,
   "lng": -75.1307793
 },
 {
   "dispatch_date_time": "2021/4/28 12:00",
   "location_block": "6500 BLOCK NEW STATE RD",
   "ucr_general": 600,
   "text_general_code": "Theft from Vehicle",
   "lat": 40.01740195,
   "lng": -75.04455672
 },
 {
   "dispatch_date_time": "2021/4/28 11:43",
   "location_block": "3900 BLOCK Whitehall Ln",
   "ucr_general": 600,
   "text_general_code": "Theft from Vehicle",
   "lat": 28.41954831,
   "lng": -81.58120216
 },
 {
   "dispatch_date_time": "2021/4/28 11:40",
   "location_block": "1800 BLOCK E SEDGLEY AV",
   "ucr_general": 600,
   "text_general_code": "Theft from Vehicle",
   "lat": 40.00243867,
   "lng": -75.10162002
 },
 {
   "dispatch_date_time": "2021/4/28 11:11",
   "location_block": "2500 BLOCK E SERGEANT ST",
   "ucr_general": 600,
   "text_general_code": "Theft from Vehicle",
   "lat": 39.97844125,
   "lng": -75.11985259
 },
 {
   "dispatch_date_time": "2021/4/28 10:51",
   "location_block": "800 BLOCK W MONTGOMERY AV",
   "ucr_general": 600,
   "text_general_code": "Theft from Vehicle",
   "lat": 39.9786645,
   "lng": -75.14869291
 },
 {
   "dispatch_date_time": "2021/4/28 10:14",
   "location_block": "5000 BLOCK CASTOR AV",
   "ucr_general": 600,
   "text_general_code": "Theft from Vehicle",
   "lat": 40.02628871,
   "lng": -75.09018067
 },
 {
   "dispatch_date_time": "2021/4/28 9:47",
   "location_block": "400 BLOCK RIPKA ST",
   "ucr_general": 600,
   "text_general_code": "Theft from Vehicle",
   "lat": 40.03537946,
   "lng": -75.21903925
 },
 {
   "dispatch_date_time": "2021/4/28 9:40",
   "location_block": "7400 BLOCK BRIAR RD",
   "ucr_general": 600,
   "text_general_code": "Theft from Vehicle",
   "lat": 40.06741424,
   "lng": -75.15460778
 },
 {
   "dispatch_date_time": "2021/4/28 9:39",
   "location_block": "2700 BLOCK MEYER PL",
   "ucr_general": 600,
   "text_general_code": "Theft from Vehicle",
   "lat": 40.06592315,
   "lng": -75.02058594
 },
 {
   "dispatch_date_time": "2021/4/28 9:30",
   "location_block": "6500 BLOCK WALKER ST",
   "ucr_general": 600,
   "text_general_code": "Theft from Vehicle",
   "lat": 40.02709008,
   "lng": -75.0522723
 },
 {
   "dispatch_date_time": "2021/4/28 8:50",
   "location_block": "3500 BLOCK N CARLISLE ST",
   "ucr_general": 600,
   "text_general_code": "Theft from Vehicle",
   "lat": 40.00704706,
   "lng": -75.15281305
 },
 {
   "dispatch_date_time": "2021/4/28 8:21",
   "location_block": "2000 BLOCK E HUNTINGDON ST",
   "ucr_general": 600,
   "text_general_code": "Theft from Vehicle",
   "lat": 39.98551845,
   "lng": -75.12477448
 },
 {
   "dispatch_date_time": "2021/4/28 8:11",
   "location_block": "2400 BLOCK ALMOND ST",
   "ucr_general": 600,
   "text_general_code": "Theft from Vehicle",
   "lat": 39.97659855,
   "lng": -75.12234294
 },
 {
   "dispatch_date_time": "2021/4/28 7:06",
   "location_block": "4100 BLOCK STIRLING ST",
   "ucr_general": 600,
   "text_general_code": "Theft from Vehicle",
   "lat": 40.02673953,
   "lng": -75.05849981
 },
 {
   "dispatch_date_time": "2021/4/28 4:12",
   "location_block": "500 BLOCK E Loudon St",
   "ucr_general": 900,
   "text_general_code": "Arson",
   "lat": 40.02209892,
   "lng": -75.1160507
 },
 {
   "dispatch_date_time": "2021/4/28 3:52",
   "location_block": "5400 BLOCK REGENT ST",
   "ucr_general": 900,
   "text_general_code": "Arson",
   "lat": 39.93823512,
   "lng": -75.22292527
 },
 {
   "dispatch_date_time": "2021/4/28 1:29",
   "location_block": "2900 BLOCK RUTH ST",
   "ucr_general": 600,
   "text_general_code": "Theft from Vehicle",
   "lat": 39.99255178,
   "lng": -75.11878768
 },
 {
   "dispatch_date_time": "2021/4/28 1:27",
   "location_block": "2900 BLOCK GRANSBACK ST",
   "ucr_general": 600,
   "text_general_code": "Theft from Vehicle",
   "lat": 39.99319145,
   "lng": -75.12156435
 },
 {
   "dispatch_date_time": "2021/4/28 1:06",
   "location_block": "2600 BLOCK ROBERTS AV",
   "ucr_general": 600,
   "text_general_code": "Theft from Vehicle",
   "lat": 40.01532365,
   "lng": -75.17024623
 },
 {
   "dispatch_date_time": "2021/4/28 0:48",
   "location_block": "6300 BLOCK Montour St",
   "ucr_general": 600,
   "text_general_code": "Theft from Vehicle",
   "lat": 40.04616005,
   "lng": -75.09005885
 },
 {
   "dispatch_date_time": "2021/4/27 21:59",
   "location_block": "WISSAHICKON AV  & LINCOLN DR ",
   "ucr_general": 600,
   "text_general_code": "Theft from Vehicle",
   "lat": 40.03078074,
   "lng": -75.18777885
 },
 {
   "dispatch_date_time": "2021/4/27 20:56",
   "location_block": "1500 BLOCK W ERIE AV",
   "ucr_general": 600,
   "text_general_code": "Theft from Vehicle",
   "lat": 40.0092035,
   "lng": -75.15306791
 },
 {
   "dispatch_date_time": "2021/4/27 20:33",
   "location_block": "5200 BLOCK HERMIT LA",
   "ucr_general": 600,
   "text_general_code": "Theft from Vehicle",
   "lat": 40.02541803,
   "lng": -75.20036962
 },
 {
   "dispatch_date_time": "2021/4/27 19:00",
   "location_block": "2200 BLOCK KELLY DR",
   "ucr_general": 600,
   "text_general_code": "Theft from Vehicle",
   "lat": 39.9920685,
   "lng": -75.19497392
 },
 {
   "dispatch_date_time": "2021/4/27 18:33",
   "location_block": "2500 BLOCK N CORLIES ST",
   "ucr_general": 600,
   "text_general_code": "Theft from Vehicle",
   "lat": 39.99448147,
   "lng": -75.18152161
 },
 {
   "dispatch_date_time": "2021/4/27 17:52",
   "location_block": "N FRONT ST & BROWN ST ",
   "ucr_general": 600,
   "text_general_code": "Theft from Vehicle",
   "lat": 39.96356322,
   "lng": -75.14362357
 },
 {
   "dispatch_date_time": "2021/4/27 17:41",
   "location_block": "3000 BLOCK N 9TH ST",
   "ucr_general": 600,
   "text_general_code": "Theft from Vehicle",
   "lat": 39.99834838,
   "lng": -75.14511137
 },
 {
   "dispatch_date_time": "2021/4/27 17:41",
   "location_block": "8200 BLOCK ROSE PETAL DR",
   "ucr_general": 600,
   "text_general_code": "Theft from Vehicle",
   "lat": 40.07048187,
   "lng": -75.06196723
 },
 {
   "dispatch_date_time": "2021/4/27 17:26",
   "location_block": "400 BLOCK Hartel Ave",
   "ucr_general": 600,
   "text_general_code": "Theft from Vehicle",
   "lat": 40.07340006,
   "lng": -75.08777582
 },
 {
   "dispatch_date_time": "2021/4/27 16:31",
   "location_block": "13400 BLOCK DAMAR DR",
   "ucr_general": 600,
   "text_general_code": "Theft from Vehicle",
   "lat": 40.12100493,
   "lng": -74.99994484
 },
 {
   "dispatch_date_time": "2021/4/27 16:01",
   "location_block": "800 BLOCK W ERIE AV",
   "ucr_general": 600,
   "text_general_code": "Theft from Vehicle",
   "lat": 40.00781329,
   "lng": -75.14192575
 },
 {
   "dispatch_date_time": "2021/4/27 15:47",
   "location_block": "600 BLOCK GREEN LA",
   "ucr_general": 600,
   "text_general_code": "Theft from Vehicle",
   "lat": 40.03500105,
   "lng": -75.21013006
 },
 {
   "dispatch_date_time": "2021/4/27 13:58",
   "location_block": "5400 BLOCK BALTIMORE AV",
   "ucr_general": 600,
   "text_general_code": "Theft from Vehicle",
   "lat": 39.94745376,
   "lng": -75.2318287
 },
 {
   "dispatch_date_time": "2021/4/27 13:14",
   "location_block": "900 BLOCK N 2ND ST",
   "ucr_general": 600,
   "text_general_code": "Theft from Vehicle",
   "lat": 39.96588506,
   "lng": -75.14001094
 },
 {
   "dispatch_date_time": "2021/4/27 13:12",
   "location_block": "700 BLOCK Wises Mill Rd",
   "ucr_general": 600,
   "text_general_code": "Theft from Vehicle",
   "lat": 40.05480999,
   "lng": -75.23032332
 },
 {
   "dispatch_date_time": "2021/4/27 12:19",
   "location_block": "700 BLOCK E HUNTING PARK AV",
   "ucr_general": 600,
   "text_general_code": "Theft from Vehicle",
   "lat": 40.01148329,
   "lng": -75.11492216
 },
 {
   "dispatch_date_time": "2021/4/27 11:49",
   "location_block": "2300 BLOCK WASHINGTON AV",
   "ucr_general": 600,
   "text_general_code": "Theft from Vehicle",
   "lat": 39.94003558,
   "lng": -75.18224639
 },
 {
   "dispatch_date_time": "2021/4/27 11:49",
   "location_block": "5600 BLOCK HOUGHTON ST",
   "ucr_general": 600,
   "text_general_code": "Theft from Vehicle",
   "lat": 40.02696423,
   "lng": -75.20628679
 },
 {
   "dispatch_date_time": "2021/4/27 11:10",
   "location_block": "7700 BLOCK BRADFORD ST",
   "ucr_general": 600,
   "text_general_code": "Theft from Vehicle",
   "lat": 40.05436959,
   "lng": -75.0513467
 },
 {
   "dispatch_date_time": "2021/4/27 10:54",
   "location_block": "2300 BLOCK S 72ND ST",
   "ucr_general": 600,
   "text_general_code": "Theft from Vehicle",
   "lat": 39.9167333,
   "lng": -75.24195933
 },
 {
   "dispatch_date_time": "2021/4/27 10:32",
   "location_block": "1100 BLOCK HERBERT ST",
   "ucr_general": 600,
   "text_general_code": "Theft from Vehicle",
   "lat": 40.02098956,
   "lng": -75.09024049
 },
 {
   "dispatch_date_time": "2021/4/27 10:14",
   "location_block": "10000 BLOCK SANDMEYER LA",
   "ucr_general": 600,
   "text_general_code": "Theft from Vehicle",
   "lat": 40.11387696,
   "lng": -75.03730241
 },
 {
   "dispatch_date_time": "2021/4/27 10:05",
   "location_block": "500 BLOCK GERHARD ST",
   "ucr_general": 600,
   "text_general_code": "Theft from Vehicle",
   "lat": 40.03071057,
   "lng": -75.21203043
 },
 {
   "dispatch_date_time": "2021/4/27 9:51",
   "location_block": "4400 BLOCK KELLY DR",
   "ucr_general": 600,
   "text_general_code": "Theft from Vehicle",
   "lat": 40.00989592,
   "lng": -75.19911376
 },
 {
   "dispatch_date_time": "2021/4/27 9:40",
   "location_block": "4800 BLOCK GRANT AV",
   "ucr_general": 600,
   "text_general_code": "Theft from Vehicle",
   "lat": 40.05472029,
   "lng": -74.98983268
 },
 {
   "dispatch_date_time": "2021/4/27 9:30",
   "location_block": "3300 BLOCK TULIP ST",
   "ucr_general": 600,
   "text_general_code": "Theft from Vehicle",
   "lat": 39.99122421,
   "lng": -75.10425226
 },
 {
   "dispatch_date_time": "2021/4/27 9:22",
   "location_block": "2200 BLOCK W Oakdale St",
   "ucr_general": 600,
   "text_general_code": "Theft from Vehicle",
   "lat": 39.99504894,
   "lng": -75.16793807
 },
 {
   "dispatch_date_time": "2021/4/27 8:58",
   "location_block": "600 BLOCK W CHEW AV",
   "ucr_general": 600,
   "text_general_code": "Theft from Vehicle",
   "lat": 40.03823173,
   "lng": -75.13255855
 },
 {
   "dispatch_date_time": "2021/4/27 8:56",
   "location_block": "2600 BLOCK S 6TH ST",
   "ucr_general": 600,
   "text_general_code": "Theft from Vehicle",
   "lat": 39.9153531,
   "lng": -75.1581769
 },
 {
   "dispatch_date_time": "2021/4/27 8:41",
   "location_block": "6900 BLOCK WOODLAND AV",
   "ucr_general": 600,
   "text_general_code": "Theft from Vehicle",
   "lat": 39.92180728,
   "lng": -75.24079544
 },
 {
   "dispatch_date_time": "2021/4/27 8:37",
   "location_block": "3900 BLOCK Castor Ave",
   "ucr_general": 600,
   "text_general_code": "Theft from Vehicle",
   "lat": 40.00626375,
   "lng": -75.09950138
 },
 {
   "dispatch_date_time": "2021/4/27 8:21",
   "location_block": "7300 BLOCK RIDGE AV",
   "ucr_general": 600,
   "text_general_code": "Theft from Vehicle",
   "lat": 40.04797044,
   "lng": -75.23399256
 },
 {
   "dispatch_date_time": "2021/4/27 6:13",
   "location_block": "1300 BLOCK HARRISON ST",
   "ucr_general": 600,
   "text_general_code": "Theft from Vehicle",
   "lat": 40.0212456,
   "lng": -75.08638221
 },
 {
   "dispatch_date_time": "2021/4/27 5:31",
   "location_block": "2800 BLOCK W SOMERSET ST",
   "ucr_general": 600,
   "text_general_code": "Theft from Vehicle",
   "lat": 39.99864717,
   "lng": -75.17700827
 },
 {
   "dispatch_date_time": "2021/4/27 4:55",
   "location_block": "400 BLOCK ROXBOROUGH AV",
   "ucr_general": 600,
   "text_general_code": "Theft from Vehicle",
   "lat": 40.02966847,
   "lng": -75.21213825
 },
 {
   "dispatch_date_time": "2021/4/27 4:08",
   "location_block": "700 BLOCK S HICKS ST",
   "ucr_general": 600,
   "text_general_code": "Theft from Vehicle",
   "lat": 39.94125804,
   "lng": -75.16824352
 },
 {
   "dispatch_date_time": "2021/4/27 4:00",
   "location_block": "6500 BLOCK LEBANON AV",
   "ucr_general": 900,
   "text_general_code": "Arson",
   "lat": 39.977788,
   "lng": -75.25076614
 },
 {
   "dispatch_date_time": "2021/4/27 2:23",
   "location_block": "2400 BLOCK DUNCAN ST",
   "ucr_general": 900,
   "text_general_code": "Arson",
   "lat": 40.00384268,
   "lng": -75.07993189
 },
 {
   "dispatch_date_time": "2021/4/27 2:14",
   "location_block": "2700 BLOCK BRIDGE ST",
   "ucr_general": 900,
   "text_general_code": "Arson",
   "lat": 40.00281522,
   "lng": -75.06534997
 },
 {
   "dispatch_date_time": "2021/4/26 23:57",
   "location_block": "CHURCH LA  & BLOYD ST ",
   "ucr_general": 900,
   "text_general_code": "Arson",
   "lat": 40.0440902,
   "lng": -75.16050574
 },
 {
   "dispatch_date_time": "2021/4/26 23:41",
   "location_block": "4300 BLOCK SANSOM ST",
   "ucr_general": 600,
   "text_general_code": "Theft from Vehicle",
   "lat": 39.95563965,
   "lng": -75.20866497
 },
 {
   "dispatch_date_time": "2021/4/26 23:05",
   "location_block": "4700 BLOCK D ST 1",
   "ucr_general": 600,
   "text_general_code": "Theft from Vehicle",
   "lat": 40.02180571,
   "lng": -75.1164023
 },
 {
   "dispatch_date_time": "2021/4/26 20:21",
   "location_block": "KELLY DR & FOUNTAIN GREEN DR ",
   "ucr_general": 600,
   "text_general_code": "Theft from Vehicle",
   "lat": 39.98063046,
   "lng": -75.19800362
 },
 {
   "dispatch_date_time": "2021/4/26 18:43",
   "location_block": "1800 BLOCK N 16TH ST 1",
   "ucr_general": 600,
   "text_general_code": "Theft from Vehicle",
   "lat": 39.98148099,
   "lng": -75.16089127
 },
 {
   "dispatch_date_time": "2021/4/26 18:36",
   "location_block": "2500 BLOCK S 62ND ST",
   "ucr_general": 600,
   "text_general_code": "Theft from Vehicle",
   "lat": 39.92442471,
   "lng": -75.22601707
 },
 {
   "dispatch_date_time": "2021/4/26 18:18",
   "location_block": "2000 BLOCK S Water St",
   "ucr_general": 600,
   "text_general_code": "Theft from Vehicle",
   "lat": 39.92264785,
   "lng": -75.1472187
 },
 {
   "dispatch_date_time": "2021/4/26 18:14",
   "location_block": "500 BLOCK UNRUH AV",
   "ucr_general": 600,
   "text_general_code": "Theft from Vehicle",
   "lat": 40.05313031,
   "lng": -75.09169463
 },
 {
   "dispatch_date_time": "2021/4/26 17:56",
   "location_block": "3200 BLOCK Richmond Ave",
   "ucr_general": 600,
   "text_general_code": "Theft from Vehicle",
   "lat": 39.98325847,
   "lng": -75.10101865
 },
 {
   "dispatch_date_time": "2021/4/26 17:24",
   "location_block": "4600 BLOCK E ROOSEVELT BLVD",
   "ucr_general": 600,
   "text_general_code": "Theft from Vehicle",
   "lat": 40.03114763,
   "lng": -75.1000858
 },
 {
   "dispatch_date_time": "2021/4/26 16:30",
   "location_block": "100 BLOCK COTTON ST",
   "ucr_general": 600,
   "text_general_code": "Theft from Vehicle",
   "lat": 40.02672379,
   "lng": -75.22069064
 },
 {
   "dispatch_date_time": "2021/4/26 16:28",
   "location_block": "900 BLOCK W ERIE AV",
   "ucr_general": 600,
   "text_general_code": "Theft from Vehicle",
   "lat": 40.00792594,
   "lng": -75.14292114
 },
 {
   "dispatch_date_time": "2021/4/26 15:54",
   "location_block": "1900 BLOCK E FIRTH ST",
   "ucr_general": 600,
   "text_general_code": "Theft from Vehicle",
   "lat": 39.98667134,
   "lng": -75.12820266
 },
 {
   "dispatch_date_time": "2021/4/26 15:51",
   "location_block": "1200 BLOCK W ATLANTIC ST",
   "ucr_general": 600,
   "text_general_code": "Theft from Vehicle",
   "lat": 40.00639923,
   "lng": -75.14921003
 },
 {
   "dispatch_date_time": "2021/4/26 15:36",
   "location_block": "9200 BLOCK WALKER ST",
   "ucr_general": 600,
   "text_general_code": "Theft from Vehicle",
   "lat": 40.05499233,
   "lng": -75.0034418
 },
 {
   "dispatch_date_time": "2021/4/26 15:24",
   "location_block": "N 11TH ST & W CUMBERLAND ST ",
   "ucr_general": 600,
   "text_general_code": "Theft from Vehicle",
   "lat": 39.99017887,
   "lng": -75.149918
 },
 {
   "dispatch_date_time": "2021/4/26 14:39",
   "location_block": "3000 BLOCK GRAYS FERRY AV",
   "ucr_general": 600,
   "text_general_code": "Theft from Vehicle",
   "lat": 39.93849297,
   "lng": -75.19418974
 },
 {
   "dispatch_date_time": "2021/4/26 13:36",
   "location_block": "9200 BLOCK BUSTLETON AV",
   "ucr_general": 600,
   "text_general_code": "Theft from Vehicle",
   "lat": 40.08177567,
   "lng": -75.04274475
 },
 {
   "dispatch_date_time": "2021/4/26 13:25",
   "location_block": "10400 BLOCK DECATUR RD",
   "ucr_general": 600,
   "text_general_code": "Theft from Vehicle",
   "lat": 40.08684924,
   "lng": -74.999627
 },
 {
   "dispatch_date_time": "2021/4/26 13:20",
   "location_block": "200 BLOCK FOUNTAIN ST",
   "ucr_general": 600,
   "text_general_code": "Theft from Vehicle",
   "lat": 40.03380074,
   "lng": -75.23024991
 },
 {
   "dispatch_date_time": "2021/4/26 13:02",
   "location_block": "3400 BLOCK N 2ND ST",
   "ucr_general": 600,
   "text_general_code": "Theft from Vehicle",
   "lat": 40.00322565,
   "lng": -75.13205231
 },
 {
   "dispatch_date_time": "2021/4/26 12:59",
   "location_block": "E WESTMORELAND ST  & CHATHAM ST ",
   "ucr_general": 600,
   "text_general_code": "Theft from Vehicle",
   "lat": 39.9888307,
   "lng": -75.10305236
 },
 {
   "dispatch_date_time": "2021/4/26 12:54",
   "location_block": "3100 BLOCK MARKET ST",
   "ucr_general": 600,
   "text_general_code": "Theft from Vehicle",
   "lat": 39.95541966,
   "lng": -75.18571588
 },
 {
   "dispatch_date_time": "2021/4/26 12:46",
   "location_block": "1500 BLOCK S WATER ST",
   "ucr_general": 600,
   "text_general_code": "Theft from Vehicle",
   "lat": 39.92816804,
   "lng": -75.14597594
 },
 {
   "dispatch_date_time": "2021/4/26 12:46",
   "location_block": "2900 BLOCK SOUTHAMPTON RD",
   "ucr_general": 600,
   "text_general_code": "Theft from Vehicle",
   "lat": 40.1054637,
   "lng": -74.98961575
 },
 {
   "dispatch_date_time": "2021/4/26 12:45",
   "location_block": "4400 BLOCK PENNYPACK ST",
   "ucr_general": 600,
   "text_general_code": "Theft from Vehicle",
   "lat": 40.04699418,
   "lng": -75.01400622
 },
 {
   "dispatch_date_time": "2021/4/26 12:42",
   "location_block": "0 BLOCK N 22ND ST",
   "ucr_general": 600,
   "text_general_code": "Theft from Vehicle",
   "lat": 39.95406146,
   "lng": -75.17663138
 },
 {
   "dispatch_date_time": "2021/4/26 12:16",
   "location_block": "2000 BLOCK E Letterly St",
   "ucr_general": 600,
   "text_general_code": "Theft from Vehicle",
   "lat": 39.98477466,
   "lng": -75.12806424
 },
 {
   "dispatch_date_time": "2021/4/26 12:15",
   "location_block": "5100 BLOCK ROCHELLE AV",
   "ucr_general": 600,
   "text_general_code": "Theft from Vehicle",
   "lat": 40.0170295,
   "lng": -75.21098987
 },
 {
   "dispatch_date_time": "2021/4/26 12:05",
   "location_block": "400 BLOCK W BRINGHURST ST",
   "ucr_general": 600,
   "text_general_code": "Theft from Vehicle",
   "lat": 40.02374541,
   "lng": -75.17541925
 },
 {
   "dispatch_date_time": "2021/4/26 12:02",
   "location_block": "0 BLOCK N 22ND ST",
   "ucr_general": 600,
   "text_general_code": "Theft from Vehicle",
   "lat": 39.95406146,
   "lng": -75.17663138
 },
 {
   "dispatch_date_time": "2021/4/26 11:55",
   "location_block": "2100 BLOCK MARKET ST",
   "ucr_general": 600,
   "text_general_code": "Theft from Vehicle",
   "lat": 39.95428523,
   "lng": -75.17612443
 },
 {
   "dispatch_date_time": "2021/4/26 11:34",
   "location_block": "3000 BLOCK N SYDENHAM ST",
   "ucr_general": 600,
   "text_general_code": "Theft from Vehicle",
   "lat": 39.99930442,
   "lng": -75.15610256
 },
 {
   "dispatch_date_time": "2021/4/26 11:27",
   "location_block": "2100 BLOCK S CHRISTOPHER COLUMBUS BLVD",
   "ucr_general": 600,
   "text_general_code": "Theft from Vehicle",
   "lat": 39.91997353,
   "lng": -75.14328591
 },
 {
   "dispatch_date_time": "2021/4/26 11:21",
   "location_block": "800 BLOCK S 55TH ST",
   "ucr_general": 600,
   "text_general_code": "Theft from Vehicle",
   "lat": 39.94793339,
   "lng": -75.23372223
 },
 {
   "dispatch_date_time": "2021/4/26 11:15",
   "location_block": "1200 BLOCK S 9TH ST",
   "ucr_general": 600,
   "text_general_code": "Theft from Vehicle",
   "lat": 39.93391072,
   "lng": -75.15897911
 },
 {
   "dispatch_date_time": "2021/4/26 10:59",
   "location_block": "S 44TH ST & WALNUT ST ",
   "ucr_general": 600,
   "text_general_code": "Theft from Vehicle",
   "lat": 39.95504696,
   "lng": -75.21005752
 },
 {
   "dispatch_date_time": "2021/4/26 10:52",
   "location_block": "2500 BLOCK MASSEY ST",
   "ucr_general": 600,
   "text_general_code": "Theft from Vehicle",
   "lat": 39.91756475,
   "lng": -75.23456161
 },
 {
   "dispatch_date_time": "2021/4/26 10:43",
   "location_block": "2100 BLOCK BRIGHTON ST",
   "ucr_general": 600,
   "text_general_code": "Theft from Vehicle",
   "lat": 40.04276199,
   "lng": -75.06167711
 },
 {
   "dispatch_date_time": "2021/4/26 9:45",
   "location_block": "2400 BLOCK E VENANGO ST",
   "ucr_general": 600,
   "text_general_code": "Theft from Vehicle",
   "lat": 39.99242716,
   "lng": -75.09661582
 },
 {
   "dispatch_date_time": "2021/4/26 9:32",
   "location_block": "14300 BLOCK TOWNSEND RD",
   "ucr_general": 600,
   "text_general_code": "Theft from Vehicle",
   "lat": 40.11217369,
   "lng": -74.97322012
 },
 {
   "dispatch_date_time": "2021/4/26 9:31",
   "location_block": "600 BLOCK N 12TH ST",
   "ucr_general": 600,
   "text_general_code": "Theft from Vehicle",
   "lat": 39.96560677,
   "lng": -75.1569162
 },
 {
   "dispatch_date_time": "2021/4/26 9:28",
   "location_block": "1500 BLOCK GERMANTOWN AV",
   "ucr_general": 600,
   "text_general_code": "Theft from Vehicle",
   "lat": 39.97395862,
   "lng": -75.1413724
 },
 {
   "dispatch_date_time": "2021/4/26 9:19",
   "location_block": "2500 BLOCK GRANT AV",
   "ucr_general": 600,
   "text_general_code": "Theft from Vehicle",
   "lat": 40.07891801,
   "lng": -75.02542331
 },
 {
   "dispatch_date_time": "2021/4/26 9:13",
   "location_block": "3000 BLOCK N 26TH ST",
   "ucr_general": 600,
   "text_general_code": "Theft from Vehicle",
   "lat": 40.00143005,
   "lng": -75.17305509
 },
 {
   "dispatch_date_time": "2021/4/26 9:11",
   "location_block": "10900 BLOCK BUSTLETON AV",
   "ucr_general": 600,
   "text_general_code": "Theft from Vehicle",
   "lat": 40.11262318,
   "lng": -75.02451536
 },
 {
   "dispatch_date_time": "2021/4/26 9:03",
   "location_block": "8000 BLOCK LARGE ST",
   "ucr_general": 600,
   "text_general_code": "Theft from Vehicle",
   "lat": 40.06197363,
   "lng": -75.05339023
 },
 {
   "dispatch_date_time": "2021/4/26 8:54",
   "location_block": "400 BLOCK N 2ND ST",
   "ucr_general": 600,
   "text_general_code": "Theft from Vehicle",
   "lat": 39.95853486,
   "lng": -75.14196576
 },
 {
   "dispatch_date_time": "2021/4/26 8:31",
   "location_block": "1200 BLOCK S 27TH ST",
   "ucr_general": 600,
   "text_general_code": "Theft from Vehicle",
   "lat": 39.93866639,
   "lng": -75.18833074
 },
 {
   "dispatch_date_time": "2021/4/26 8:25",
   "location_block": "700 BLOCK S 13TH ST",
   "ucr_general": 600,
   "text_general_code": "Theft from Vehicle",
   "lat": 39.9419208,
   "lng": -75.16343891
 },
 {
   "dispatch_date_time": "2021/4/26 8:23",
   "location_block": "5800 BLOCK N 5TH ST",
   "ucr_general": 600,
   "text_general_code": "Theft from Vehicle",
   "lat": 40.04013629,
   "lng": -75.13003782
 },
 {
   "dispatch_date_time": "2021/4/26 8:04",
   "location_block": "400 BLOCK CARPENTER LA",
   "ucr_general": 600,
   "text_general_code": "Theft from Vehicle",
   "lat": 40.04877389,
   "lng": -75.19337695
 },
 {
   "dispatch_date_time": "2021/4/26 7:38",
   "location_block": "3800 BLOCK N 5TH ST",
   "ucr_general": 600,
   "text_general_code": "Theft from Vehicle",
   "lat": 40.00926941,
   "lng": -75.13638592
 },
 {
   "dispatch_date_time": "2021/4/26 6:55",
   "location_block": "6000 BLOCK DUFFIELD ST",
   "ucr_general": 600,
   "text_general_code": "Theft from Vehicle",
   "lat": 40.02588689,
   "lng": -75.06664427
 },
 {
   "dispatch_date_time": "2021/4/26 4:46",
   "location_block": "ARAMINGO AV  & WHEATSHEAF LA ",
   "ucr_general": 600,
   "text_general_code": "Theft from Vehicle",
   "lat": 39.99727835,
   "lng": -75.08946846
 },
 {
   "dispatch_date_time": "2021/4/26 3:05",
   "location_block": "5600 BLOCK OGONTZ AV",
   "ucr_general": 600,
   "text_general_code": "Theft from Vehicle",
   "lat": 40.03957544,
   "lng": -75.15128043
 },
 {
   "dispatch_date_time": "2021/4/26 1:49",
   "location_block": "1900 BLOCK W VENANGO ST",
   "ucr_general": 600,
   "text_general_code": "Theft from Vehicle",
   "lat": 40.00852537,
   "lng": -75.1599124
 },
 {
   "dispatch_date_time": "2021/4/25 23:50",
   "location_block": "500 BLOCK N Broad St",
   "ucr_general": 900,
   "text_general_code": "Arson",
   "lat": 39.96253151,
   "lng": -75.16139479
 },
 {
   "dispatch_date_time": "2021/4/25 20:42",
   "location_block": "7200 BLOCK LYNFORD ST",
   "ucr_general": 600,
   "text_general_code": "Theft from Vehicle",
   "lat": 40.04984582,
   "lng": -75.06519662
 },
 {
   "dispatch_date_time": "2021/4/25 20:34",
   "location_block": "800 BLOCK N 25TH ST",
   "ucr_general": 600,
   "text_general_code": "Theft from Vehicle",
   "lat": 39.97014227,
   "lng": -75.1780719
 },
 {
   "dispatch_date_time": "2021/4/25 18:41",
   "location_block": "400 BLOCK HERMIT ST",
   "ucr_general": 600,
   "text_general_code": "Theft from Vehicle",
   "lat": 40.02295966,
   "lng": -75.20907215
 },
 {
   "dispatch_date_time": "2021/4/25 18:36",
   "location_block": "1500 BLOCK S 7th St",
   "ucr_general": 600,
   "text_general_code": "Theft from Vehicle",
   "lat": 39.92921291,
   "lng": -75.15702
 },
 {
   "dispatch_date_time": "2021/4/25 18:02",
   "location_block": "0 BLOCK FRANKLIN MILLS BLVD",
   "ucr_general": 600,
   "text_general_code": "Theft from Vehicle",
   "lat": 40.08799642,
   "lng": -74.96578906
 },
 {
   "dispatch_date_time": "2021/4/25 17:52",
   "location_block": "500 BLOCK E DUVAL ST",
   "ucr_general": 600,
   "text_general_code": "Theft from Vehicle",
   "lat": 40.05074414,
   "lng": -75.17551826
 },
 {
   "dispatch_date_time": "2021/4/25 17:46",
   "location_block": "8500 BLOCK Verree Rd Phl <8540",
   "ucr_general": 600,
   "text_general_code": "Theft from Vehicle",
   "lat": 40.08127295,
   "lng": -75.0684175
 },
 {
   "dispatch_date_time": "2021/4/25 17:03",
   "location_block": "3800 BLOCK PENNSGROVE ST",
   "ucr_general": 600,
   "text_general_code": "Theft from Vehicle",
   "lat": 39.9722169,
   "lng": -75.20073054
 },
 {
   "dispatch_date_time": "2021/4/25 16:32",
   "location_block": "1100 BLOCK S 19TH ST",
   "ucr_general": 600,
   "text_general_code": "Theft from Vehicle",
   "lat": 39.93858033,
   "lng": -75.17482833
 },
 {
   "dispatch_date_time": "2021/4/25 16:04",
   "location_block": "2900 BLOCK BENNER ST",
   "ucr_general": 600,
   "text_general_code": "Theft from Vehicle",
   "lat": 40.0272462,
   "lng": -75.06612027
 },
 {
   "dispatch_date_time": "2021/4/25 14:32",
   "location_block": "1300 BLOCK W RUSCOMB ST",
   "ucr_general": 600,
   "text_general_code": "Theft from Vehicle",
   "lat": 40.02917728,
   "lng": -75.1453159
 },
 {
   "dispatch_date_time": "2021/4/25 14:07",
   "location_block": "2000 BLOCK RED LION RD",
   "ucr_general": 600,
   "text_general_code": "Theft from Vehicle",
   "lat": 40.09940674,
   "lng": -75.02419904
 },
 {
   "dispatch_date_time": "2021/4/25 13:51",
   "location_block": "6000 BLOCK HORROCKS ST",
   "ucr_general": 600,
   "text_general_code": "Theft from Vehicle",
   "lat": 40.03274417,
   "lng": -75.07753215
 },
 {
   "dispatch_date_time": "2021/4/25 13:38",
   "location_block": "4100 BLOCK OLD YORK RD",
   "ucr_general": 600,
   "text_general_code": "Theft from Vehicle",
   "lat": 40.01513648,
   "lng": -75.14756312
 },
 {
   "dispatch_date_time": "2021/4/25 13:30",
   "location_block": "300 BLOCK WATERVIEW LA",
   "ucr_general": 600,
   "text_general_code": "Theft from Vehicle",
   "lat": 40.09845536,
   "lng": -74.98616737
 },
 {
   "dispatch_date_time": "2021/4/25 12:54",
   "location_block": "2400 BLOCK BENJAMIN FRANKLIN PKWY",
   "ucr_general": 600,
   "text_general_code": "Theft from Vehicle",
   "lat": 39.96395565,
   "lng": -75.17741999
 },
 {
   "dispatch_date_time": "2021/4/25 12:49",
   "location_block": "1500 BLOCK ADAMS AV",
   "ucr_general": 600,
   "text_general_code": "Theft from Vehicle",
   "lat": 40.00949176,
   "lng": -75.09288633
 },
 {
   "dispatch_date_time": "2021/4/25 12:49",
   "location_block": "600 BLOCK EARP ST",
   "ucr_general": 600,
   "text_general_code": "Theft from Vehicle",
   "lat": 39.93158812,
   "lng": -75.15505159
 },
 {
   "dispatch_date_time": "2021/4/25 12:45",
   "location_block": "2600 BLOCK S 65TH ST",
   "ucr_general": 600,
   "text_general_code": "Theft from Vehicle",
   "lat": 39.92059037,
   "lng": -75.22880683
 },
 {
   "dispatch_date_time": "2021/4/25 11:39",
   "location_block": "1700 BLOCK BELFIELD AV",
   "ucr_general": 600,
   "text_general_code": "Theft from Vehicle",
   "lat": 40.02885005,
   "lng": -75.15210854
 },
 {
   "dispatch_date_time": "2021/4/25 9:07",
   "location_block": "FRANKFORD AV  & PRATT ST ",
   "ucr_general": 600,
   "text_general_code": "Theft from Vehicle",
   "lat": 40.02237091,
   "lng": -75.07816588
 },
 {
   "dispatch_date_time": "2021/4/25 8:19",
   "location_block": "9600 BLOCK BUSTLETON AV",
   "ucr_general": 600,
   "text_general_code": "Theft from Vehicle",
   "lat": 40.08809253,
   "lng": -75.03529495
 },
 {
   "dispatch_date_time": "2021/4/25 7:38",
   "location_block": "1600 BLOCK Edgely St",
   "ucr_general": 600,
   "text_general_code": "Theft from Vehicle",
   "lat": 39.9859088,
   "lng": -75.16051543
 },
 {
   "dispatch_date_time": "2021/4/25 5:41",
   "location_block": "100 BLOCK S BROAD ST",
   "ucr_general": 900,
   "text_general_code": "Arson",
   "lat": 39.95022135,
   "lng": -75.16369178
 },
 {
   "dispatch_date_time": "2021/4/24 22:09",
   "location_block": "900 BLOCK E Church Ln",
   "ucr_general": 900,
   "text_general_code": "Arson",
   "lat": 40.04486116,
   "lng": -75.15959663
 },
 {
   "dispatch_date_time": "2021/4/24 21:22",
   "location_block": "1600 BLOCK BRIDGE ST",
   "ucr_general": 900,
   "text_general_code": "Arson",
   "lat": 40.02221593,
   "lng": -75.0762299
 },
 {
   "dispatch_date_time": "2021/4/24 20:19",
   "location_block": "2900 BLOCK N REESE ST",
   "ucr_general": 600,
   "text_general_code": "Theft from Vehicle",
   "lat": 39.99582714,
   "lng": -75.13987972
 },
 {
   "dispatch_date_time": "2021/4/24 20:14",
   "location_block": "5300 BLOCK COTTAGE ST",
   "ucr_general": 600,
   "text_general_code": "Theft from Vehicle",
   "lat": 40.01756914,
   "lng": -75.06829781
 },
 {
   "dispatch_date_time": "2021/4/24 19:50",
   "location_block": "1800 BLOCK COTTMAN AV",
   "ucr_general": 600,
   "text_general_code": "Theft from Vehicle",
   "lat": 40.05348747,
   "lng": -75.06941752
 },
 {
   "dispatch_date_time": "2021/4/24 18:52",
   "location_block": "12800 BLOCK TOWNSEND RD",
   "ucr_general": 600,
   "text_general_code": "Theft from Vehicle",
   "lat": 40.10665275,
   "lng": -74.97940163
 },
 {
   "dispatch_date_time": "2021/4/24 17:53",
   "location_block": "2700 BLOCK WELSH RD",
   "ucr_general": 600,
   "text_general_code": "Theft from Vehicle",
   "lat": 40.06479841,
   "lng": -75.02868484
 },
 {
   "dispatch_date_time": "2021/4/24 16:23",
   "location_block": "4600 BLOCK CEDAR AV",
   "ucr_general": 600,
   "text_general_code": "Theft from Vehicle",
   "lat": 39.9490737,
   "lng": -75.21595955
 },
 {
   "dispatch_date_time": "2021/4/24 16:06",
   "location_block": "5600 BLOCK Willows Ave",
   "ucr_general": 600,
   "text_general_code": "Theft from Vehicle",
   "lat": 39.94105724,
   "lng": -75.23212964
 },
 {
   "dispatch_date_time": "2021/4/24 15:27",
   "location_block": "4800 BLOCK TACKAWANNA ST",
   "ucr_general": 600,
   "text_general_code": "Theft from Vehicle",
   "lat": 40.01502909,
   "lng": -75.07724011
 },
 {
   "dispatch_date_time": "2021/4/24 15:02",
   "location_block": "800 BLOCK LEMON HILL DR",
   "ucr_general": 600,
   "text_general_code": "Theft from Vehicle",
   "lat": 39.97083417,
   "lng": -75.18868185
 },
 {
   "dispatch_date_time": "2021/4/24 14:47",
   "location_block": "3700 BLOCK MOUNT PLEASANT DR",
   "ucr_general": 600,
   "text_general_code": "Theft from Vehicle",
   "lat": 39.98462107,
   "lng": -75.20026912
 },
 {
   "dispatch_date_time": "2021/4/24 14:40",
   "location_block": "0 BLOCK W WEAVER ST",
   "ucr_general": 600,
   "text_general_code": "Theft from Vehicle",
   "lat": 40.04748153,
   "lng": -75.18548291
 },
 {
   "dispatch_date_time": "2021/4/24 14:22",
   "location_block": "4100 BLOCK HORTICULTURAL DR",
   "ucr_general": 600,
   "text_general_code": "Theft from Vehicle",
   "lat": 39.98144693,
   "lng": -75.21357807
 },
 {
   "dispatch_date_time": "2021/4/24 14:02",
   "location_block": "6100 BLOCK ERDRICK ST",
   "ucr_general": 600,
   "text_general_code": "Theft from Vehicle",
   "lat": 40.02399352,
   "lng": -75.06207159
 },
 {
   "dispatch_date_time": "2021/4/24 13:31",
   "location_block": "1100 BLOCK FRIENDSHIP ST",
   "ucr_general": 600,
   "text_general_code": "Theft from Vehicle",
   "lat": 40.05232541,
   "lng": -75.07541418
 },
 {
   "dispatch_date_time": "2021/4/24 12:33",
   "location_block": "200 BLOCK FOUNTAIN ST",
   "ucr_general": 600,
   "text_general_code": "Theft from Vehicle",
   "lat": 40.03604964,
   "lng": -75.22684035
 },
 {
   "dispatch_date_time": "2021/4/24 12:21",
   "location_block": "2300 BLOCK EMERSON ST",
   "ucr_general": 600,
   "text_general_code": "Theft from Vehicle",
   "lat": 40.06079217,
   "lng": -75.04620789
 },
 {
   "dispatch_date_time": "2021/4/24 12:04",
   "location_block": "4400 BLOCK CONSHOHOCKEN AV",
   "ucr_general": 600,
   "text_general_code": "Theft from Vehicle",
   "lat": 39.99993209,
   "lng": -75.22051366
 },
 {
   "dispatch_date_time": "2021/4/24 11:56",
   "location_block": "SUSQUEHANNA RD  & VERREE RD ",
   "ucr_general": 600,
   "text_general_code": "Theft from Vehicle",
   "lat": 40.0801736,
   "lng": -75.06846646
 },
 {
   "dispatch_date_time": "2021/4/24 11:28",
   "location_block": "100 BLOCK ARCH ST",
   "ucr_general": 600,
   "text_general_code": "Theft from Vehicle",
   "lat": 39.95164888,
   "lng": -75.14299349
 },